id,name,description,age_group_min,age_group_max,price,is_featured,venue,address,postcode,latitude,longitude,day_of_week,time,contact_email,contact_phone,website,category,rating,review_count,popularity,is_active,created_at,phone,town,whatsapp_number,instagram_handle,facebook_page,parking_available,parking_type,parking_notes,nearest_tube_station,nearest_bus_stops,transport_accessibility,venue_accessibility,accessibility_notes,additional_towns,time_of_day,email,social_media,search_radius_km
1,Test Bulk Import,Testing fast import,0,5,Contact for pricing,f,Test Venue,Test Address,SW1A 1AA,51.50740000,-0.12780000,Multiple,Various,,,,General Classes,,0,0,t,2025-05-26 14:57:47.67053,,London,,,,,,,,,,,,,,,,5
10,Baby College,"{""Service options"": {""Online classes"": true, ""On-site services"": true}, ""Accessibility"": {""Wheelchair-accessible car park"": true, ""Wheelchair-accessible entrance"": true}}",0,12,Contact for pricing,f,Baby College,"Unit 2, the old coal yard, Little Waltham Rd, Broomfield, Chelmsford CM1 7TG",CM1 7TG,51.76581500,0.48769610,Multiple,Various times,,,,General Classes,5.00,1,0,t,2025-05-26 14:58:32.390648,+447871119037,Chelmsford,,,,,,,,,,,,,,,,5
11,Baby College,"{""Accessibility"": {""Wheelchair-accessible car park"": true, ""Wheelchair-accessible entrance"": true}}",0,12,Contact for pricing,f,Baby College,"Pauls Ln, Hoddesdon EN11 8TR",EN11 8TR,51.76226590,-0.01179360,Multiple,Various times,,,https://www.babycollege.co.uk/east-herts,General Classes,5.00,13,0,t,2025-05-26 14:58:32.559437,+447429360661,Hoddesdon,,,,,,,,,,,,,,,,5
12,Baby and Toddler classes- Tappy Toes Epping & Harlow,"{""Service options"": {""On-site services"": true}, ""Accessibility"": {""Wheelchair-accessible car park"": true}, ""Children"": {""Good for kids"": true}, ""Parking"": {""Free of charge street parking"": true}}",0,12,Free,f,Baby and Toddler classes- Tappy Toes Epping & Harlow,"United Reformed Church, Lindsey St, Epping CM16 6RB",CM16 6RB,51.70455550,0.11557640,Multiple,Various times,,,http://www.tappytoes.com/toddler-classes-epping,Dance & Movement,5.00,5,0,t,2025-05-26 14:58:32.744345,+447506760644,Epping,,,,,,,,,,,,,,,,5
13,Woodland Play Patch,"{""From the business"": {""Identifies as women-owned"": true}, ""Accessibility"": {""Wheelchair-accessible toilet"": true}, ""Offerings"": {""Food"": true}, ""Amenities"": {""Restaurant"": true, ""Toilet"": true}, ""Children"": {""Good for kids"": true}, ""Other"": {""Identifies as women-owned"": true}}",0,60,Contact for pricing,f,Woodland Play Patch,"10 Morton Crescent, Fence Houses, Houghton le Spring DH4 6AD",DH4 6AD,54.84690990,-1.50892460,Multiple,Various times,,,https://bookwhen.com/theplaygroupeastdurham,Play Groups,5.00,43,0,t,2025-05-26 14:58:32.908882,+447447722273,Houghton le Spring,,,,,,,,,,,,,,,,5
14,Bloom Baby Classes Durham,"{""Service options"": {""Same-day delivery"": false}, ""Accessibility"": {""Wheelchair-accessible car park"": true, ""Wheelchair-accessible entrance"": true}}",0,12,Contact for pricing,f,Bloom Baby Classes Durham,"Masonic Hall Bungalow, Station Rd, Penshaw, Houghton le Spring DH4 7LQ",DH4 7LQ,54.86907740,-1.49647660,Multiple,Various times,,,https://www.bloombabyclasses.com/durham,General Classes,5.00,2,0,t,2025-05-26 14:58:33.072067,+447392295628,Houghton le Spring,,,,,,,,,,,,,,,,5
16,Tots Play Newport and Cwmbran - Baby and Toddler Classes,"{""From the business"": {""Identifies as women-owned"": true}, ""Service options"": {""On-site services"": true}, ""Accessibility"": {""Wheelchair-accessible car park"": true, ""Wheelchair-accessible entrance"": true}, ""Crowd"": {""LGBTQ+ friendly"": true, ""Transgender safe space"": true}, ""Other"": {""LGBTQ+ friendly"": true, ""Identifies as women-owned"": true}}",0,12,Contact for pricing,f,Tots Play Newport and Cwmbran - Baby and Toddler Classes,"Graig Community Centre, Cowshed Ln, Bassaleg, Newport NP10 8HZ",NP10 8HZ,51.57608600,-3.05267650,Multiple,Various times,,,http://www.totsplay.co.uk/newport-cwmbran,Play Groups,5.00,24,0,t,2025-05-26 14:58:33.402979,+447894290031,Newport,,,,,,,,,,,,,,,,5
15,Bloom Durham West Baby Classes - Witton Gilbert,"{""Accessibility"": {""Wheelchair-accessible car park"": true, ""Wheelchair-accessible entrance"": true}}",0,12,Contact for pricing,f,Bloom Durham West Baby Classes - Witton Gilbert,"Sacriston Ln, Witton Gilbert, Durham DH7 6TF",DH7 6TF,54.80664970,-1.63855670,Multiple,Various times,,,http://www.bloombabyclasses.com/durham-west,General Classes,5.00,3,0,t,2025-05-26 14:58:33.247411,+447539700362,Durham,,,,,,,,,,,,,,,,5
8,Water Babies at Oak View School,"{""Accessibility"": {""Wheelchair-accessible car park"": true}}",0,60,Contact for pricing,f,Water Babies at Oak View School,"Whitehills Rd, Loughton IG10 1TS",IG10 1TS,51.64976120,0.06927980,Saturday,8:30am,,,https://www.waterbabies.co.uk/classes/london-north-east/oak-view-school,Swimming,5.00,1,0,t,2025-05-26 14:58:32.050324,+442089894821,Loughton,,,,,,,,,,,,,,,,5
6,"Monkey Music South Woodford, Loughton & Buckhurst Hill","{""Accessibility"": {""Wheelchair-accessible car park"": true}, ""Children"": {""Good for kids"": true}}",0,60,Contact for pricing,f,"Monkey Music South Woodford, Loughton & Buckhurst Hill","Fallow Fields, Loughton IG10 4QP",IG10 4QP,51.63489770,0.04683810,Multiple,Various times,,,https://www.monkeymusic.co.uk/area/south-woodford-woodford-green-loughton-buckhurst-hill,Music & Singing,5.00,18,0,t,2025-05-26 14:58:31.721828,+442089897017,Loughton,,,,,,,,,,,,,,,,5
4,Little Oaks Children's Centre,"{""Accessibility"": {""Wheelchair-accessible car park"": true, ""Wheelchair-accessible entrance"": true, ""Wheelchair-accessible toilet"": true}, ""Amenities"": {""Toilet"": true, ""Restaurant"": false}, ""Children"": {""Good for kids"": true}}",0,60,Contact for pricing,f,Little Oaks Children's Centre,"Loughton Resourse Centre, Torrington Drive, Loughton IG10 3TD",IG10 3TD,51.64899060,0.08860050,Multiple,Various times,,,,General Classes,4.30,22,0,t,2025-05-26 14:58:31.400061,+442085080932,Loughton,,,,,,,,,,,,,,,,5
7,Chingford Baby Sensory,"{""Accessibility"": {""Wheelchair-accessible entrance"": true}, ""Planning"": {""Appointment required"": true}}",0,12,Contact for pricing,f,Chingford Baby Sensory,"Mornington Hall, The Green Walk, London E4 7EN",E4 7EN,51.63167750,0.00108670,Multiple,Various times,,,https://www.babysensory.com/loughton,Sensory Play,4.00,1,0,t,2025-05-26 14:58:31.885886,+447753605850,London,,,,,,,,,,,,,,,,5
17,Birth & Bloom,"{""Accessibility"": {""Wheelchair-accessible car park"": true}}",0,60,Contact for pricing,f,Birth & Bloom,"4, Church Yard, Ashby-de-la-Zouch LE65 1AA",LE65 1AA,52.74756040,-1.46711610,Saturday,10:00am,,,http://birthandbloom.net/,General Classes,5.00,46,0,t,2025-05-26 14:58:33.562685,,Ashby-de-la-Zouch,,,,,,,,,,,,,,,,5
5,Tumble Tots Kids Gymnatics Classes Chigwell,"{""From the business"": {""Identifies as women-owned"": true}, ""Accessibility"": {""Wheelchair-accessible car park"": true, ""Wheelchair-accessible entrance"": true}, ""Other"": {""Identifies as women-owned"": true}}",0,60,Contact for pricing,f,Tumble Tots Kids Gymnatics Classes Chigwell,"Woollard Centre, Buckhurst Hill IG9 6AQ",IG9 6AQ,51.62944760,0.04861070,Tuesday,10:00am,,,http://www.tumbletots.com/chigwell,Physical Development,5.00,12,0,t,2025-05-26 14:58:31.564442,+447849903035,Buckhurst Hill,,,,,,,,,,,,,,,,5
29,Happy Parents Happy Baby Antenatal Classes - Leigh-on-Sea,"{""Accessibility"": {""Wheelchair-accessible car park"": true}}",0,12,Contact for pricing,f,Happy Parents Happy Baby Antenatal Classes - Leigh-on-Sea,"The Corner Club, 44-46 Broadway, Southend-on-Sea, Leigh-on-Sea SS9 1AH",SS9 1AH,51.54141000,0.65758300,Multiple,Various times,,,https://happyparentshappybaby.com/locations/p/leigh-on-sea,General Classes,5.00,14,0,t,2025-05-26 14:58:35.5493,,Leigh-on-Sea,,,,,,,,,,,,,,,,5
31,Hamstel Family Centre,"{""Accessibility"": {""Wheelchair-accessible car park"": true, ""Wheelchair-accessible entrance"": true}, ""Crowd"": {""LGBTQ+ friendly"": true}, ""Children"": {""Kid-friendly activities"": true, ""Nursing room"": true}, ""Other"": {""LGBTQ+ friendly"": true}}",0,60,Contact for pricing,f,Hamstel Family Centre,"Hamstel Rd, Southend-on-Sea SS2 4PQ",SS2 4PQ,51.54599570,0.73730370,Multiple,Various times,,,http://www.southendfamilycentres.co.uk/,General Classes,4.60,45,0,t,2025-05-26 14:58:35.869883,+441702220810,Southend-on-Sea,,,,,,,,,,,,,,,,5
19,Little Acorns Forest Schools Ltd,"{""Service options"": {""On-site services"": true, ""Online classes"": false}, ""Accessibility"": {""Wheelchair-accessible car park"": true, ""Wheelchair-accessible entrance"": true}, ""Amenities"": {""Gender-neutral toilets"": true}, ""Planning"": {""Appointment required"": true}}",0,60,Contact for pricing,f,Little Acorns Forest Schools Ltd,"14 Foxglove Ave, Moira, Donisthorpe, Swadlincote LE65 2UP",LE65 2UP,52.72475740,-1.53652150,Multiple,Various times,,,http://www.forestschooltraininguk.co.uk/,General Classes,5.00,45,0,t,2025-05-26 14:58:33.90208,+447724601147,Swadlincote,,,,,,,,,,,,,,,,5
24,Simon Coope Karate School,"{""Accessibility"": {""Wheelchair-accessible car park"": true, ""Wheelchair-accessible entrance"": true}}",0,60,Contact for pricing,f,Simon Coope Karate School,"Hood Park Leisure Center, North St, Ashby-de-la-Zouch LE65 1HS",LE65 1HS,52.74893100,-1.47122470,Saturday,10:00am,,,http://www.leicesterkarate.net/,General Classes,4.40,5,0,t,2025-05-26 14:58:34.740856,+447906261769,Ashby-de-la-Zouch,,,,,,,,,,,,,,,,5
26,Incredible Kids Ashby,"{""Accessibility"": {""Wheelchair-accessible car park"": true, ""Wheelchair-accessible entrance"": true}}",0,60,Contact for pricing,f,Incredible Kids Ashby,"Norman court, Ivanhoe Business Park, 3, Ashby-de-la-Zouch LE65 2UZ",LE65 2UZ,52.76119830,-1.47845000,Saturday,10:00am,,,https://www.incrediblekidsdaynursery.co.uk/,General Classes,4.50,8,0,t,2025-05-26 14:58:35.07236,+441530415566,Ashby-de-la-Zouch,,,,,,,,,,,,,,,,5
30,Do It Like A Mother,"{""Service options"": {""On-site services"": true}, ""Accessibility"": {""Wheelchair-accessible entrance"": true}, ""Amenities"": {""Gender-neutral toilets"": true, ""Toilet"": true}, ""Planning"": {""Appointments recommended"": true}}",0,60,Contact for pricing,f,Do It Like A Mother,"861 London Rd, Westcliff-on-Sea, Southend-on-Sea, Westcliff-on-Sea SS0 9SZ",SS0 9SZ,51.54588850,0.67386290,Multiple,Various times,,,http://doitlikeamother.co.uk/,General Classes,5.00,5,0,t,2025-05-26 14:58:35.710627,,Westcliff-on-Sea,,,,,,,,,,,,,,,,5
32,The Toddler Lounge,"{""Accessibility"": {""Wheelchair-accessible entrance"": true, ""Wheelchair-accessible toilet"": true}, ""Children"": {""Kid-friendly activities"": true}}",12,60,Contact for pricing,f,The Toddler Lounge,"415 Westborough Rd, Westcliff-on-Sea, Southend-on-Sea, Westcliff-on-Sea SS0 9TN",SS0 9TN,51.54773970,0.68023710,Multiple,Various times,,,https://www.thetoddlerlounge.co.uk/,General Classes,5.00,4,0,t,2025-05-26 14:58:36.029614,+441702965521,Westcliff-on-Sea,,,,,,,,,,,,,,,,5
21,EMSA Leicestershire,"{""From the business"": {""Identifies as women-owned"": true}, ""Accessibility"": {""Wheelchair-accessible car park"": true, ""Wheelchair-accessible entrance"": true, ""Wheelchair-accessible seating"": true, ""Wheelchair-accessible toilet"": true}, ""Parking"": {""Free parking lot"": true}, ""Other"": {""Identifies as women-owned"": true}}",0,60,Free,f,EMSA Leicestershire,"Grace Dieu Mnr Dr, Coalville LE67 5UG",LE67 5UG,52.75718700,-1.35180220,Tuesday,10:00am,,,http://www.em-sa.co.uk/,Swimming,5.00,28,0,t,2025-05-26 14:58:34.242641,+447514877640,Coalville,,,,,,,,,,,,,,,,5
25,Donisthorpe Woodlands Centre,"{""Accessibility"": {""Wheelchair-accessible car park"": true, ""Wheelchair-accessible entrance"": true}}",0,60,Contact for pricing,f,Donisthorpe Woodlands Centre,"Church St, Donisthorpe, Swadlincote DE12 7PX",DE12 7PX,52.72354800,-1.53015000,Multiple,Various times,,,,Play Groups,4.70,15,0,t,2025-05-26 14:58:34.906539,+441530272203,Swadlincote,,,,,,,,,,,,,,,,5
23,Heafield Lucy,"{""Accessibility"": {""Wheelchair-accessible car park"": true}, ""Children"": {""Good for kids"": true}}",0,60,Contact for pricing,f,Heafield Lucy,"13 Tamworth Rd, Ashby-de-la-Zouch LE65 2PW",LE65 2PW,52.74197980,-1.47567430,Saturday,10:00am,,,,Dance & Movement,4.00,4,0,t,2025-05-26 14:58:34.574584,+447944349501,Ashby-de-la-Zouch,,,,,,,,,,,,,,,,5
27,Stagecoach,"{""Accessibility"": {""Wheelchair-accessible car park"": true, ""Wheelchair-accessible entrance"": true}, ""Children"": {""Good for kids"": true}}",0,60,Contact for pricing,f,Stagecoach,"Ivanhoe College, North St, Ashby-de-la-Zouch LE65 1HX",LE65 1HX,52.74995010,-1.46920660,Saturday,9:00am,,,https://www.stagecoach.co.uk/ashbydelazouch?utm_source=google,General Classes,5.00,1,0,t,2025-05-26 14:58:35.236952,+441332512555,Ashby-de-la-Zouch,,,,,,,,,,,,,,,,5
18,Mother Nurture Natal,"{""From the business"": {""Identifies as women-owned"": true}, ""Service options"": {""On-site services"": true, ""Online classes"": false}, ""Amenities"": {""Toilet"": true}, ""Planning"": {""Appointment required"": true, ""Appointments recommended"": true}, ""Children"": {""Good for kids"": true}, ""Parking"": {""On-site parking"": true, ""Paid parking lot"": true}, ""Other"": {""Identifies as women-owned"": true}}",0,60,Contact for pricing,f,Mother Nurture Natal,"5 Burton Rd, Ashby-de-la-Zouch LE65 2LF",LE65 2LF,52.74806540,-1.47423910,Saturday,10:00am,,,https://www.mothernurture-natal.co.uk/,Yoga & Mindfulness,5.00,2,0,t,2025-05-26 14:58:33.726028,+447814134130,Ashby-de-la-Zouch,,,,,,,,,,,,,,,,5
22,TinyTalk South Derby and Ashby-de-la-Zouch,"{""Accessibility"": {""Wheelchair-accessible car park"": true}}",0,60,Contact for pricing,f,TinyTalk South Derby and Ashby-de-la-Zouch,"5 Burton Rd, Ashby-de-la-Zouch LE65 2LF",LE65 2LF,52.74806540,-1.47423910,Saturday,10:00am,,,https://www.tinytalk.co.uk/emilywatson,General Classes,5.00,7,0,t,2025-05-26 14:58:34.400505,,Ashby-de-la-Zouch,,,,,,,,,,,,,,,,5
20,"JAKS Academy of Dance, Drama & Music","{""Accessibility"": {""Wheelchair-accessible entrance"": false}, ""Children"": {""Good for kids"": true}}",0,60,Contact for pricing,f,"JAKS Academy of Dance, Drama & Music","Saxon House, 3 Union Psge, Ashby-de-la-Zouch LE65 1BW",LE65 1BW,52.74623410,-1.47179650,Monday,10:00am,,,http://www.jaks-academy.co.uk/#sample-page,Music & Singing,5.00,4,0,t,2025-05-26 14:58:34.073979,+447748677854,Ashby-de-la-Zouch,,,,,,,,,,,,,,,,5
37,Kids Kingdom,"Softplay centre including a large slide, hosting regular activities/events with garden and a cafe.",0,60,Contact for pricing,f,Kids Kingdom,"Kids Kingdom Garon Park, Eastern Ave, Southend-on-Sea SS2 4FA",SS2 4FA,51.55263430,0.73718190,Multiple,Various times,,,http://www.kidskingdom-southend.co.uk/,Play Groups,4.20,577,0,t,2025-05-26 14:58:36.844878,+441702462747,Southend-on-Sea,,,,,,,,,,,,,,,,5
38,Prince Avenue Family Centre,"{""Accessibility"": {""Wheelchair-accessible car park"": true, ""Wheelchair-accessible entrance"": true}, ""Amenities"": {""Gender-neutral toilets"": true}}",0,60,Contact for pricing,f,Prince Avenue Family Centre,"Family Centres, Prince Ave, Hornby Ave, Westcliff-on-Sea, Southend-on-Sea, Westcliff-on-Sea SS0 0LG",SS0 0LG,51.56082870,0.69426800,Multiple,Various times,,,https://www.southendfamilycentres.co.uk/,General Classes,5.00,1,0,t,2025-05-26 14:58:37.034246,+441702220810,Westcliff-on-Sea,,,,,,,,,,,,,,,,5
39,First Steps Dance,"{""Children"": {""Good for kids"": true}}",0,60,Contact for pricing,f,First Steps Dance,"St Edmund's Community Centre, 15 St Edmund's Cl, Southend-on-Sea SS2 4BL",SS2 4BL,51.55069380,0.73080620,Multiple,Various times,,,http://toddlerdance.co.uk/,Dance & Movement,5.00,8,0,t,2025-05-26 14:58:37.186969,,Southend-on-Sea,,,,,,,,,,,,,,,,5
41,Meridian Kung Fu (UK),"{""Accessibility"": {""Wheelchair-accessible car park"": true, ""Wheelchair-accessible entrance"": true}}",0,60,Contact for pricing,f,Meridian Kung Fu (UK),"10a West St, Westcliff-on-Sea, Southend-on-Sea SS2 6HJ",SS2 6HJ,51.54823680,0.70427660,Multiple,Various times,,,http://meridiankungfu.com/,Arts & Crafts,4.80,25,0,t,2025-05-26 14:58:37.510604,+447812410866,Southend-on-Sea,,,,,,,,,,,,,,,,5
42,Tina Phelps Stage School,"{""Accessibility"": {""Wheelchair-accessible car park"": true, ""Wheelchair-accessible entrance"": true, ""Wheelchair-accessible seating"": true, ""Wheelchair-accessible toilet"": true}, ""Planning"": {""Appointment required"": true}, ""Children"": {""Good for kids"": true}}",0,60,Contact for pricing,f,Tina Phelps Stage School,"St Luke's Rd, Southend-on-Sea SS2 4AA",SS2 4AA,51.54709900,0.72338930,Multiple,Various times,,,https://www.tinaphelpsstageschool.co.uk/,Dance & Movement,4.90,16,0,t,2025-05-26 14:58:37.665083,+441702469819,Southend-on-Sea,,,,,,,,,,,,,,,,5
43,Kidz Camp Essex,"{""Accessibility"": {""Wheelchair-accessible car park"": true, ""Wheelchair-accessible entrance"": true}}",0,60,Contact for pricing,f,Kidz Camp Essex,"Kidz Camp Essex, Hamstel Rd, Southend-on-Sea SS2 4PQ",SS2 4PQ,51.54664400,0.73748100,Multiple,Various times,,,https://www.kidzcampessex.co.uk/,General Classes,3.70,3,0,t,2025-05-26 14:58:37.819491,+441702741093,Southend-on-Sea,,,,,,,,,,,,,,,,5
45,Okami Martial Arts,"{""Service options"": {""Online classes"": true, ""Outdoor services"": true, ""On-site services"": true}, ""Accessibility"": {""Assistive hearing loop"": false, ""Wheelchair-accessible seating"": false, ""Wheelchair-accessible toilet"": false}, ""Planning"": {""Appointment required"": true}, ""Children"": {""Discounts for kids"": true, ""Family discount"": true}}",0,60,Contact for pricing,f,Okami Martial Arts,"Unit 2, Street Gym, Priory Works, Priory Ave, Southend-on-Sea SS2 6LD",SS2 6LD,51.55142970,0.70891140,Multiple,Various times,,,http://www.okamima.com/,Arts & Crafts,4.80,74,0,t,2025-05-26 14:58:38.151792,+447396079932,Southend-on-Sea,,,,,,,,,,,,,,,,5
46,Razzamataz Southend and Leigh on Sea,"{""Accessibility"": {""Wheelchair-accessible car park"": true, ""Wheelchair-accessible entrance"": true}, ""Amenities"": {""Child care"": true, ""Restaurant"": false}, ""Payments"": {""Debit cards"": true}, ""Children"": {""Good for kids"": true}}",0,60,Contact for pricing,f,Razzamataz Southend and Leigh on Sea,"High School for Girls, Southend-on-Sea SS2 4UZ",SS2 4UZ,51.54165410,0.74458380,Multiple,Various times,,,https://southend.razzamataz.co.uk/,Arts & Crafts,5.00,10,0,t,2025-05-26 14:58:38.30668,+447955245619,Southend-on-Sea,,,,,,,,,,,,,,,,5
47,A Better Start Southend,{},0,60,Contact for pricing,f,A Better Start Southend,"3rd Floor, One Hub, Maitland House Warrior Square, Southend-on-Sea SS1 2JY",SS1 2JY,51.54358420,0.71250570,Multiple,Various times,,,http://www.abetterstartsouthend.co.uk/,Arts & Crafts,4.30,4,0,t,2025-05-26 14:58:38.461322,+441702880370,Southend-on-Sea,,,,,,,,,,,,,,,,5
48,Gannon's Martial Arts - Southend-on-Sea,"{""Accessibility"": {""Wheelchair-accessible car park"": true}, ""Children"": {""Family discount"": true}}",0,60,Contact for pricing,f,Gannon's Martial Arts - Southend-on-Sea,"Community Hall, St. Edmunds, St Edmund's Cl, Southend-on-Sea SS2 4AS",SS2 4AS,51.55040420,0.73019110,Multiple,Various times,,,https://www.gannonsmartialarts.com/southend-on-sea/,Arts & Crafts,5.00,3,0,t,2025-05-26 14:58:38.618815,+447804876638,Southend-on-Sea,,,,,,,,,,,,,,,,5
65,Sandcastles Nursery & Beach School,"{""Accessibility"": {""Wheelchair-accessible car park"": true}}",0,60,Contact for pricing,f,Sandcastles Nursery & Beach School,"425 Marine Rd E, Morecambe LA4 6AA",LA4 6AA,54.07709580,-2.84683260,Multiple,Various times,,,http://www.nursery-morecambe.co.uk/,General Classes,5.00,10,0,t,2025-05-26 14:59:56.144004,+441524831932,Morecambe,,,,,,,,,,,,,,,,5
49,David Lloyd Southend,"{""Service options"": {""On-site services"": true}, ""Accessibility"": {""Wheelchair-accessible car park"": true, ""Wheelchair-accessible entrance"": true}, ""Offerings"": {""Sauna"": true}, ""Amenities"": {""Basketball court"": true, ""Has a tennis court"": true, ""Swimming pool"": true}, ""Atmosphere"": {""Shower"": true}}",0,60,Contact for pricing,f,David Lloyd Southend,"Snakes Ln, Southend-on-Sea SS2 6XT",SS2 6XT,51.56575110,0.66995660,Tuesday,10:00am,,,https://www.davidlloyd.co.uk/clubs/southend/?utm_source=google,Swimming,4.70,819,0,t,2025-05-26 14:58:38.780911,+441702520355,Southend-on-Sea,,,,,,,,,,,,,,,,5
44,Southend Leisure & Tennis Centre,Community centre for sports tuition with a gym running group classes and on-site swimming pool.,0,60,Contact for pricing,f,Southend Leisure & Tennis Centre,"Garon Park Cricket Ground, Eastern Ave, Southend-on-Sea SS2 4FA",SS2 4FA,51.55460360,0.73458860,Tuesday,10:00am,,,https://www.fusion-lifestyle.com/centres/southend-leisure-tennis-centre,Swimming,3.30,338,0,t,2025-05-26 14:58:37.994909,+441702613000,Southend-on-Sea,,,,,,,,,,,,,,,,5
34,Water Babies @ Twin Oaks,{},0,60,Contact for pricing,f,Water Babies @ Twin Oaks,"56 Whitehouse Rd, Southend-on-Sea, Leigh-on-Sea SS9 5SR",SS9 5SR,51.56868240,0.66597300,Saturday,8:30am,,,https://www.waterbabies.co.uk/classes/essex/the-oaks,Swimming,5.00,2,0,t,2025-05-26 14:58:36.354751,+441708444345,Leigh-on-Sea,,,,,,,,,,,,,,,,5
40,Morley's Music Academy,"{""Service options"": {""On-site services"": true}, ""Accessibility"": {""Wheelchair-accessible car park"": true}, ""Children"": {""Good for kids"": true}}",0,60,Contact for pricing,f,Morley's Music Academy,"6 Grainger Rd, Southend-on-Sea SS2 5BZ",SS2 5BZ,51.54442630,0.71405530,Monday,10:00am,,,http://morleysmusicacademy.co.uk/,Music & Singing,5.00,25,0,t,2025-05-26 14:58:37.350063,+441702936530,Southend-on-Sea,,,,,,,,,,,,,,,,5
50,Tutoring With Mehroz,"{""Service options"": {""Online classes"": true, ""On-site services"": true, ""Language assistance"": ""English""}, ""Parking"": {""Free of charge street parking"": true}}",0,60,Free,f,Tutoring With Mehroz,"Sutton Rd, Southend-on-Sea SS2 5EW",SS2 5EW,51.54656130,0.71622260,Multiple,Various times,,,,Language & Communication,5.00,15,0,t,2025-05-26 14:58:38.951183,+447768481255,Southend-on-Sea,,,,,,,,,,,,,,,,5
51,Cambridge Road Children's Centre,"{""Accessibility"": {""Wheelchair-accessible car park"": true, ""Wheelchair-accessible entrance"": true}}",0,60,Contact for pricing,f,Cambridge Road Children's Centre,"40-42 Cambridge Rd, Westcliff-on-Sea, Southend-on-Sea SS1 1EB",SS1 1EB,51.53585010,0.70568780,Multiple,Various times,,,http://www.southendfamilycentres.co.uk/,General Classes,3.00,2,0,t,2025-05-26 14:58:39.110547,+441702220810,Southend-on-Sea,,,,,,,,,,,,,,,,5
52,Pam Freedman School of Dance,"{""Children"": {""Good for kids"": true}}",0,60,Free,f,Pam Freedman School of Dance,"55 Surbiton Rd, Southend-on-Sea SS2 4NR",SS2 4NR,51.54280170,0.73386730,Multiple,Various times,,,,Dance & Movement,5.00,2,0,t,2025-05-26 14:58:39.2706,+447970883738,Southend-on-Sea,,,,,,,,,,,,,,,,5
53,Baby and toddler classes-Tappy Toes Chelmsford (Chelmer village),"{""Children"": {""Good for kids"": true}}",0,12,Contact for pricing,f,Baby and toddler classes-Tappy Toes Chelmsford (Chelmer village),"Church of Our Saviour, Ashton Pl, Chelmer Village, Chelmsford CM2 6ST",CM2 6ST,51.73491320,0.50558480,Multiple,Various times,,,https://www.tappytoes.com/TODDLER-CLASSES-CHELMSFORD,Dance & Movement,5.00,8,0,t,2025-05-26 14:58:39.427984,+447917525087,Chelmsford,,,,,,,,,,,,,,,,5
54,Lighthouse Child Development Centre,"{""Accessibility"": {""Wheelchair-accessible car park"": true, ""Wheelchair-accessible entrance"": true}}",0,60,Contact for pricing,f,Lighthouse Child Development Centre,"Snakes Ln, Southend-on-Sea, Leigh-on-Sea SS2 6XT",SS2 6XT,51.56570760,0.66710200,Multiple,Various times,,,,General Classes,1.90,42,0,t,2025-05-26 14:58:39.59383,+443442573952,Leigh-on-Sea,,,,,,,,,,,,,,,,5
55,Welcome to the UK,"{""Accessibility"": {""Wheelchair-accessible car park"": true, ""Wheelchair-accessible entrance"": true}}",0,60,Contact for pricing,f,Welcome to the UK,"Unit F39, 362 Chartwell Square, Southend-on-Sea SS2 5SP",SS2 5SP,51.54108860,0.71361540,Multiple,Various times,,,https://www.welcome2theuk.com/,General Classes,4.80,20,0,t,2025-05-26 14:59:54.482993,+441702808579,Southend-on-Sea,,,,,,,,,,,,,,,,5
56,Poulton Children's Centre,"{""Accessibility"": {""Wheelchair-accessible car park"": true, ""Wheelchair-accessible entrance"": true, ""Wheelchair-accessible toilet"": true}, ""Amenities"": {""Toilet"": true, ""Restaurant"": false}, ""Children"": {""Good for kids"": true}}",0,60,Contact for pricing,f,Poulton Children's Centre,"Clark St, Morecambe LA4 5HR",LA4 5HR,54.07462220,-2.86129250,Multiple,Various times,,,,General Classes,4.60,26,0,t,2025-05-26 14:59:54.646215,+441524581281,Morecambe,,,,,,,,,,,,,,,,5
58,Stanleys Community Centre,"{""Accessibility"": {""Wheelchair-accessible car park"": true, ""Wheelchair-accessible entrance"": true}}",0,60,Contact for pricing,f,Stanleys Community Centre,"79-83 Stanley Rd, Heysham, Morecambe LA3 1UT",LA3 1UT,54.06138290,-2.88303520,Multiple,Various times,,,https://stanleyscommunitycentre.co.uk/,General Classes,4.60,65,0,t,2025-05-26 14:59:54.998084,+441524410076,Morecambe,,,,,,,,,,,,,,,,5
59,Reading Fairy Lancaster,"{""From the business"": {""Identifies as women-owned"": true}, ""Service options"": {""On-site services"": true}, ""Accessibility"": {""Wheelchair-accessible entrance"": true, ""Assistive hearing loop"": false, ""Wheelchair-accessible seating"": false, ""Wheelchair-accessible toilet"": false}, ""Amenities"": {""Gender-neutral toilets"": true}, ""Crowd"": {""LGBTQ+ friendly"": true, ""Transgender safe space"": true}, ""Children"": {""Discounts for kids"": true, ""Family discount"": true, ""Kid-friendly activities"": true}, ""Parking"": {""Free of charge street parking"": true, ""Free parking lot"": true, ""On-site parking"": true}, ""Other"": {""LGBTQ+ friendly"": true, ""Identifies as women-owned"": true}}",0,60,Free,f,Reading Fairy Lancaster,"Church of Ascension, The Vestry, Torrisholme, Morecambe LA4 6RH",LA4 6RH,54.06666820,-2.83507090,Multiple,Various times,,,http://www.readingfairy.com/lancaster,Story Time,5.00,7,0,t,2025-05-26 14:59:55.15878,+447985364584,Morecambe,,,,,,,,,,,,,,,,5
61,Bare Necessities Pre-school Play Group,"{""Accessibility"": {""Wheelchair-accessible car park"": true, ""Wheelchair-accessible entrance"": true}}",12,60,Contact for pricing,f,Bare Necessities Pre-school Play Group,"Bare Methodist Church Hall, St Margaret's Rd, Morecambe LA4 6EF",LA4 6EF,54.07747030,-2.84385320,Multiple,Various times,,,http://www.barenecessities.org.uk/,Play Groups,5.00,2,0,t,2025-05-26 14:59:55.477422,+441524415975,Morecambe,,,,,,,,,,,,,,,,5
62,PottyRoo's Ceramics and Crafts,"{""Service options"": {""Online classes"": false}, ""Accessibility"": {""Wheelchair-accessible car park"": true, ""Wheelchair-accessible entrance"": true, ""Wheelchair-accessible seating"": true, ""Wheelchair-accessible toilet"": true}, ""Planning"": {""Appointment required"": true}, ""Children"": {""Good for kids"": true}, ""Parking"": {""Free of charge street parking"": true, ""Paid parking lot"": true}}",0,60,Free,f,PottyRoo's Ceramics and Crafts,"295 Marine Rd Central, Morecambe LA4 5BY",LA4 5BY,54.07419860,-2.86437000,Multiple,Various times,,,https://www.pottyroosceramics.co.uk/,Arts & Crafts,5.00,14,0,t,2025-05-26 14:59:55.651996,+447503231954,Morecambe,,,,,,,,,,,,,,,,5
63,"MARTIAL ARTS, FITNESS &JUNIOR LEADERSHIP ACADEMY","{""Accessibility"": {""Wheelchair-accessible car park"": true}}",0,60,Contact for pricing,f,"MARTIAL ARTS, FITNESS &JUNIOR LEADERSHIP ACADEMY","14 Whitefield Pl, Morecambe LA3 3EA",LA3 3EA,54.05824180,-2.85183190,Multiple,Various times,,,http://www.morecambemartialarts.co.uk/,Physical Development,4.90,37,0,t,2025-05-26 14:59:55.808761,+447979544466,Morecambe,,,,,,,,,,,,,,,,5
64,Lancashire Pregnancy Yoga,"{""From the business"": {""Identifies as women-owned"": true}, ""Amenities"": {""Toilet"": true}, ""Planning"": {""Appointment required"": true, ""Appointments recommended"": true}, ""Other"": {""Identifies as women-owned"": true}}",0,60,Contact for pricing,f,Lancashire Pregnancy Yoga,"Community Centre, 3 Packet Ln, Bolton-le-Sands, Carnforth LA5 8DW",LA5 8DW,54.10469900,-2.78991600,Multiple,Various times,,,,Yoga & Mindfulness,5.00,7,0,t,2025-05-26 14:59:55.984281,+447748637968,Carnforth,,,,,,,,,,,,,,,,5
164,Little Dreamers Baby Massage Poole & Bournemouth,{},0,12,Contact for pricing,f,Little Dreamers Baby Massage Poole & Bournemouth,"Yarrow Rd, Poole BH12 4NX",BH12 4NX,50.74845220,-1.94954520,Thursday,10:00am,,,,Sensory Play,5.00,1,0,t,2025-05-26 15:01:42.30413,+447802545554,Poole,,,,,,,,,,,,,,,,5
67,The Dance Factory,"{""Accessibility"": {""Wheelchair-accessible car park"": true}, ""Children"": {""Good for kids"": true}}",0,60,Contact for pricing,f,The Dance Factory,"Stanley Rd, Heysham, Morecambe LA3 1UP",LA3 1UP,54.06216580,-2.88391680,Multiple,Various times,,,http://www.thedancefactory.co.uk/,Dance & Movement,5.00,4,0,t,2025-05-26 14:59:56.460519,+441524421841,Morecambe,,,,,,,,,,,,,,,,5
68,Pauline Quirke Academy of Performing Arts Morecambe and Lancaster,"{""Accessibility"": {""Wheelchair-accessible car park"": true, ""Wheelchair-accessible entrance"": true}, ""Children"": {""Good for kids"": true}}",0,60,Contact for pricing,f,Pauline Quirke Academy of Performing Arts Morecambe and Lancaster,"Bay Leadership Academy, Osborne Rd, Morecambe LA3 1AB",LA3 1AB,54.05998330,-2.87699100,Multiple,Various times,,,https://www.pqacademy.com/academies/morecambe-and-lancaster/,Arts & Crafts,5.00,6,0,t,2025-05-26 14:59:56.626086,+447481080293,Morecambe,,,,,,,,,,,,,,,,5
69,Jump Rush Trampoline Park,"{""Service options"": {""On-site services"": true}, ""Accessibility"": {""Wheelchair-accessible car park"": true, ""Wheelchair-accessible entrance"": true}, ""Parking"": {""On-site parking"": true}}",0,60,Contact for pricing,f,Jump Rush Trampoline Park,"21 Northumberland St, Morecambe LA4 4AY",LA4 4AY,54.07144560,-2.87103310,Multiple,Various times,,,http://www.jump-rush.com/,General Classes,4.20,251,0,t,2025-05-26 14:59:56.776778,+441524587100,Morecambe,,,,,,,,,,,,,,,,5
70,The City of Lancaster Gymnastics Club,"{""Service options"": {""On-site services"": true}, ""Accessibility"": {""Wheelchair-accessible car park"": true, ""Wheelchair-accessible entrance"": true}}",0,60,Contact for pricing,f,The City of Lancaster Gymnastics Club,"Lancaster Leisure Site, Wyresdale Rd, Lancaster LA1 3LA",LA1 3LA,54.03992460,-2.78193750,Multiple,Various times,,,https://www.facebook.com/lancastergymnastics/,Physical Development,4.90,7,0,t,2025-05-26 14:59:56.929638,+441524843344,Lancaster,,,,,,,,,,,,,,,,5
72,Bootcamp UK Poole - Outdoors Fitness Classes in Poole,"{""Accessibility"": {""Wheelchair-accessible car park"": true, ""Wheelchair-accessible entrance"": true}, ""Crowd"": {""LGBTQ+ friendly"": true, ""Transgender safe space"": true}, ""Other"": {""LGBTQ+ friendly"": true}}",0,60,Contact for pricing,f,Bootcamp UK Poole - Outdoors Fitness Classes in Poole,"Whitecliff Rd, Poole BH14 8DU",BH14 8DU,50.71619350,-1.95599210,Multiple,Various times,,,https://www.bcuk.uk/poole,Physical Development,5.00,65,0,t,2025-05-26 14:59:57.259619,+447720621772,Poole,,,,,,,,,,,,,,,,5
74,The Ark,"A soft play area for under-11's, ice-skating rink, caf√© & ice cream kiosk under one roof.",0,60,11,f,The Ark,"82 Parkstone Rd, Poole BH15 2SF",BH15 2SF,50.72075670,-1.96513160,Multiple,Various times,,,http://www.thearkpoolepark.co.uk/,Play Groups,3.80,789,0,t,2025-05-26 14:59:57.590707,+441202717197,Poole,,,,,,,,,,,,,,,,5
75,Jodie Anne fitness,"{""Service options"": {""Online classes"": true, ""On-site services"": true}}",0,60,Contact for pricing,f,Jodie Anne fitness,"83 Ringwood Rd, Poole BH14 0RH",BH14 0RH,50.73320130,-1.95555160,Multiple,Various times,,,http://www.jodieannefitness.com/,Physical Development,5.00,154,0,t,2025-05-26 14:59:57.780708,+447860864924,Poole,,,,,,,,,,,,,,,,5
76,Unite Stage Academy UK,"{""Accessibility"": {""Wheelchair-accessible car park"": true}, ""Amenities"": {""Gender-neutral toilets"": true}, ""Children"": {""Good for kids"": true}, ""Parking"": {""Free of charge street parking"": true, ""Free parking lot"": true, ""Paid multi-storey car park"": true, ""Paid street parking"": true}}",0,60,Free,f,Unite Stage Academy UK,"Unite Stage Academy, Poole BH12 2LW",BH12 2LW,50.72924420,-1.93890550,Multiple,Various times,,,https://www.unitestageacademy.co.uk/,Dance & Movement,4.70,46,0,t,2025-05-26 14:59:57.941561,+447554257903,Poole,,,,,,,,,,,,,,,,5
77,Aimee's Dance Academy,"{""Accessibility"": {""Wheelchair-accessible car park"": true, ""Wheelchair-accessible entrance"": true}, ""Children"": {""Good for kids"": true}}",0,60,Contact for pricing,f,Aimee's Dance Academy,"262 Ringwood Rd, Poole BH14 0RS",BH14 0RS,50.73402780,-1.95487010,Multiple,Various times,,,http://www.aimeesdanceacademy.co.uk/,Dance & Movement,5.00,32,0,t,2025-05-26 14:59:58.097591,+447828789147,Poole,,,,,,,,,,,,,,,,5
78,The Orchard Academy Of Performing Arts,"{""Accessibility"": {""Wheelchair-accessible car park"": true, ""Wheelchair-accessible entrance"": true}, ""Children"": {""Good for kids"": true}}",0,60,Contact for pricing,f,The Orchard Academy Of Performing Arts,"Albany Park, 28, Cabot Ln, Poole BH17 7BX",BH17 7BX,50.74350540,-1.98836930,Multiple,Various times,,,http://www.theorchardacademy.co.uk/,Dance & Movement,5.00,6,0,t,2025-05-26 14:59:58.255123,+447860772000,Poole,,,,,,,,,,,,,,,,5
73,Little Dreamers Baby Massage Poole & Bournemouth,{},0,12,Contact for pricing,f,Little Dreamers Baby Massage Poole & Bournemouth,"Yarrow Rd, Poole BH12 4NX",BH12 4NX,50.74845220,-1.94954520,Tuesday,10:00am,,,,Sensory Play,5.00,1,0,t,2025-05-26 14:59:57.418748,+447802545554,Poole,,,,,,,,,,,,,,,,5
71,Puddle Ducks Dorset,"{""Accessibility"": {""Wheelchair-accessible car park"": true, ""Wheelchair-accessible entrance"": true}, ""Planning"": {""Appointment required"": true}, ""Parking"": {""On-site parking"": true}}",0,60,Contact for pricing,f,Puddle Ducks Dorset,"Bayside Business Centre, Sovereign Business Park, 48 Willis Way, Poole BH15 3TB",BH15 3TB,50.73441020,-1.98946110,Tuesday,10:00am,,,http://www.puddleducks.com/dorset,Swimming,4.80,20,0,t,2025-05-26 14:59:57.090691,+441202674676,Poole,,,,,,,,,,,,,,,,5
80,Stagecoach Performing Arts Poole,"{""Accessibility"": {""Wheelchair-accessible car park"": true, ""Wheelchair-accessible entrance"": true}, ""Children"": {""Good for kids"": true}}",0,60,Contact for pricing,f,Stagecoach Performing Arts Poole,"St.Edward's School, Dale Valley Rd, Poole BH15 3HY",BH15 3HY,50.73840800,-1.96106800,Saturday,9:00am,,,https://www.stagecoach.co.uk/?utm_source=google,Arts & Crafts,5.00,1,0,t,2025-05-26 14:59:58.56644,+441962859995,Poole,,,,,,,,,,,,,,,,5
82,BEAST CLUB,"{""Accessibility"": {""Wheelchair-accessible car park"": true}, ""Offerings"": {""Sauna"": true}, ""Amenities"": {""Wi-Fi"": true, ""Swimming pool"": true}, ""Children"": {""Good for kids"": true}}",0,60,Contact for pricing,f,BEAST CLUB,"54 Willis Way, Poole BH15 3SY",BH15 3SY,50.73518450,-1.98747750,Tuesday,10:00am,,,,Swimming,5.00,3,0,t,2025-05-26 15:01:04.387028,+447722156537,Poole,,,,,,,,,,,,,,,,5
81,Jo Jingles,"{""Accessibility"": {""Wheelchair-accessible car park"": true, ""Wheelchair-accessible entrance"": true}}",0,60,Contact for pricing,f,Jo Jingles,"62 Canford Cliffs Rd, Poole BH13 7AB",BH13 7AB,50.71906110,-1.92567780,Tuesday,10:00am,,,https://www.jojingles.com/,Play Groups,5.00,1,0,t,2025-05-26 14:59:58.726369,+441202739444,Poole,,,,,,,,,,,,,,,,5
83,Healing Haven Yoga Studio in Poole,"{""From the business"": {""Identifies as women-owned"": true}, ""Service options"": {""Outdoor services"": true, ""On-site services"": true, ""Online classes"": false}, ""Amenities"": {""Gender-neutral toilets"": true, ""Toilet"": true}, ""Crowd"": {""LGBTQ+ friendly"": true}, ""Planning"": {""Appointment required"": true, ""Appointments recommended"": true}, ""Other"": {""LGBTQ+ friendly"": true, ""Identifies as women-owned"": true}}",0,60,Contact for pricing,f,Healing Haven Yoga Studio in Poole,"119 Bournemouth Rd, Poole BH14 9HR",BH14 9HR,50.72478250,-1.93753920,Multiple,Various times,,,http://www.healinghavenpoole.com/,Yoga & Mindfulness,5.00,167,0,t,2025-05-26 15:01:04.558028,,Poole,,,,,,,,,,,,,,,,5
84,MyDanceParty,"{""Accessibility"": {""Wheelchair-accessible car park"": true}}",0,60,Contact for pricing,f,MyDanceParty,"5 Richmond Rd, Poole BH14 0BP",BH14 0BP,50.72836240,-1.93882430,Multiple,Various times,,,,Dance & Movement,5.00,1,0,t,2025-05-26 15:01:04.74747,+447789648929,Poole,,,,,,,,,,,,,,,,5
85,Dorset Adventure Sports,"{""Accessibility"": {""Wheelchair-accessible car park"": true, ""Wheelchair-accessible entrance"": true}, ""Planning"": {""Appointment required"": true}, ""Parking"": {""Free parking lot"": true, ""On-site parking"": true}}",0,60,Free,f,Dorset Adventure Sports,"Unit 9, Dorset Adventure Sports, Birch Copse, Technology Rd, Poole BH17 7FH",BH17 7FH,50.74521200,-1.99593300,Multiple,Various times,,,https://www.dorsetadventuresports.co.uk/,General Classes,4.90,235,0,t,2025-05-26 15:01:04.948769,+441202937552,Poole,,,,,,,,,,,,,,,,5
86,Hen Pamper Parties & Children's Pamper Parties - Pamper PartyCo,"{""Accessibility"": {""Wheelchair-accessible car park"": true}, ""Amenities"": {""Gender-neutral toilets"": true, ""Toilet"": true}, ""Planning"": {""Appointments recommended"": true}, ""Payments"": {""Credit cards"": true, ""Debit cards"": true, ""NFC mobile payments"": true}, ""Children"": {""Good for kids"": true}}",0,60,Contact for pricing,f,Hen Pamper Parties & Children's Pamper Parties - Pamper PartyCo,"Ringwood Road, Poole BH14 0RN",BH14 0RN,50.72670450,-1.96515650,Multiple,Various times,,,https://www.pamperpartyco.co.uk/,Arts & Crafts,4.30,46,0,t,2025-05-26 15:01:05.130294,+441202982631,Poole,,,,,,,,,,,,,,,,5
87,BASE,"{""From the business"": {""Identifies as women-owned"": true}, ""Service options"": {""Outdoor services"": true, ""On-site services"": true}, ""Accessibility"": {""Wheelchair-accessible car park"": true}, ""Amenities"": {""Toilet"": true}, ""Crowd"": {""LGBTQ+ friendly"": true, ""Transgender safe space"": true}, ""Planning"": {""Appointments recommended"": true}, ""Parking"": {""Free of charge street parking"": true}, ""Other"": {""LGBTQ+ friendly"": true, ""Identifies as women-owned"": true}}",0,60,Free,f,BASE,"1 Victoria Rd, Poole BH12 3BA",BH12 3BA,50.72937850,-1.94207480,Multiple,Various times,,,https://www.thebasespace.com/?utm_source=organic,General Classes,5.00,17,0,t,2025-05-26 15:01:05.304175,+447481901588,Poole,,,,,,,,,,,,,,,,5
88,Breeze Academy of Dance,"{""Service options"": {""Online classes"": true}, ""Accessibility"": {""Wheelchair-accessible car park"": true}, ""Children"": {""Good for kids"": true}}",0,60,Contact for pricing,f,Breeze Academy of Dance,"75A Ringwood Rd, Poole BH14 0RG",BH14 0RG,50.73311880,-1.95749290,Multiple,Various times,,,http://breezeacademydance.co.uk/,Dance & Movement,5.00,7,0,t,2025-05-26 15:01:05.464649,+447484664811,Poole,,,,,,,,,,,,,,,,5
89,Pole crazy,"{""Service options"": {""Online classes"": true, ""On-site services"": true}, ""Accessibility"": {""Wheelchair-accessible car park"": true, ""Wheelchair-accessible seating"": false, ""Wheelchair-accessible toilet"": false}, ""Amenities"": {""Gender-neutral toilets"": true}, ""Crowd"": {""LGBTQ+ friendly"": true, ""Transgender safe space"": true}, ""Planning"": {""Appointment required"": true}, ""Children"": {""Good for kids"": true}, ""Other"": {""LGBTQ+ friendly"": true}}",0,60,Contact for pricing,f,Pole crazy,"Unit 1a, 262 Ringwood Rd, Poole BH14 0RS",BH14 0RS,50.73404180,-1.95462680,Multiple,Various times,,,http://www.polecrazy.com/,Dance & Movement,5.00,41,0,t,2025-05-26 15:01:05.642153,+447595999268,Poole,,,,,,,,,,,,,,,,5
90,Flip Out Poole,"{""Accessibility"": {""Wheelchair-accessible car park"": true, ""Wheelchair-accessible entrance"": true}}",0,60,Contact for pricing,f,Flip Out Poole,"Unit 45-55 (Store 6, Poole BH15 1SZ",BH15 1SZ,50.71837560,-1.98074660,Multiple,Various times,,,https://www.flipout.co.uk/,General Classes,4.50,858,0,t,2025-05-26 15:01:05.8181,+441202143742,Poole,,,,,,,,,,,,,,,,5
91,Hybrid Gym Parkstone,"{""Accessibility"": {""Wheelchair-accessible car park"": true}, ""Atmosphere"": {""Shower"": true}, ""Crowd"": {""LGBTQ+ friendly"": true, ""Transgender safe space"": true}, ""Planning"": {""Membership required"": true}, ""Parking"": {""Free of charge street parking"": true, ""Paid parking lot"": true, ""Paid street parking"": true}, ""Other"": {""LGBTQ+ friendly"": true}}",0,60,Free,f,Hybrid Gym Parkstone,"350A Ashley Rd, Poole BH14 9DF",BH14 9DF,50.72882940,-1.93690860,Multiple,Various times,,,https://hybridgymparkstone.univer.se/,Physical Development,5.00,6,0,t,2025-05-26 15:01:05.988347,,Poole,,,,,,,,,,,,,,,,5
92,Dance Majic,"{""Accessibility"": {""Wheelchair-accessible car park"": true}, ""Children"": {""Good for kids"": true}}",0,60,Contact for pricing,f,Dance Majic,"316 Ringwood Rd, Poole BH14 0RY",BH14 0RY,50.73488280,-1.95248320,Multiple,Various times,,,https://dance-majic.co.uk/,Dance & Movement,4.60,16,0,t,2025-05-26 15:01:06.263424,+447928720836,Poole,,,,,,,,,,,,,,,,5
93,Centre Stage School of Dance and Performing Arts,"{""Accessibility"": {""Wheelchair-accessible car park"": true}, ""Children"": {""Good for kids"": true}}",0,60,Contact for pricing,f,Centre Stage School of Dance and Performing Arts,"St Lukes Church Hall, 37 Birchwood Rd, Poole BH14 9NW",BH14 9NW,50.72197970,-1.93327040,Multiple,Various times,,,http://centrestagedance.org/,Dance & Movement,5.00,4,0,t,2025-05-26 15:01:06.428234,+441202733231,Poole,,,,,,,,,,,,,,,,5
95,Little Oaks Children's Centre (GROUPED),"{""Accessibility"": {""Wheelchair-accessible car park"": true, ""Wheelchair-accessible entrance"": true, ""Wheelchair-accessible toilet"": true}, ""Amenities"": {""Toilet"": true, ""Restaurant"": false}, ""Children"": {""Good for kids"": true}}",0,60,Contact for pricing,f,Little Oaks Children's Centre,"Loughton Resourse Centre, Torrington Drive, Loughton IG10 3TD",IG10 3TD,51.64899060,0.08860050,Multiple,Various times,,,,General Classes,4.30,22,0,f,2025-05-26 15:01:36.599089,+442085080932,Loughton,,,,,,,,,,,,,,,,5
96,Tumble Tots Kids Gymnatics Classes Chigwell,"{""From the business"": {""Identifies as women-owned"": true}, ""Accessibility"": {""Wheelchair-accessible car park"": true, ""Wheelchair-accessible entrance"": true}, ""Other"": {""Identifies as women-owned"": true}}",0,60,Contact for pricing,f,Tumble Tots Kids Gymnatics Classes Chigwell,"Woollard Centre, Buckhurst Hill IG9 6AQ",IG9 6AQ,51.62944760,0.04861070,Thursday,10:00am,,,http://www.tumbletots.com/chigwell,Physical Development,5.00,12,0,t,2025-05-26 15:01:36.67894,+447849903035,Buckhurst Hill,,,,,,,,,,,,,,,,5
102,Baby College,"{""Accessibility"": {""Wheelchair-accessible car park"": true, ""Wheelchair-accessible entrance"": true}}",0,12,Contact for pricing,f,Baby College,"Pauls Ln, Hoddesdon EN11 8TR",EN11 8TR,51.76226590,-0.01179360,Multiple,Various times,,,https://www.babycollege.co.uk/east-herts,General Classes,5.00,13,0,t,2025-05-26 15:01:37.175054,+447429360661,Hoddesdon,,,,,,,,,,,,,,,,5
104,Woodland Play Patch,"{""From the business"": {""Identifies as women-owned"": true}, ""Accessibility"": {""Wheelchair-accessible toilet"": true}, ""Offerings"": {""Food"": true}, ""Amenities"": {""Restaurant"": true, ""Toilet"": true}, ""Children"": {""Good for kids"": true}, ""Other"": {""Identifies as women-owned"": true}}",0,60,Contact for pricing,f,Woodland Play Patch,"10 Morton Crescent, Fence Houses, Houghton le Spring DH4 6AD",DH4 6AD,54.84690990,-1.50892460,Multiple,Various times,,,https://bookwhen.com/theplaygroupeastdurham,Play Groups,5.00,43,0,t,2025-05-26 15:01:37.338725,+447447722273,Houghton le Spring,,,,,,,,,,,,,,,,5
120,Happy Parents Happy Baby Antenatal Classes - Leigh-on-Sea,"{""Accessibility"": {""Wheelchair-accessible car park"": true}}",0,12,Contact for pricing,f,Happy Parents Happy Baby Antenatal Classes - Leigh-on-Sea,"The Corner Club, 44-46 Broadway, Southend-on-Sea, Leigh-on-Sea SS9 1AH",SS9 1AH,51.54141000,0.65758300,Multiple,Various times,,,https://happyparentshappybaby.com/locations/p/leigh-on-sea,General Classes,5.00,14,0,t,2025-05-26 15:01:38.669987,,Leigh-on-Sea,,,,,,,,,,,,,,,,5
122,Hamstel Family Centre,"{""Accessibility"": {""Wheelchair-accessible car park"": true, ""Wheelchair-accessible entrance"": true}, ""Crowd"": {""LGBTQ+ friendly"": true}, ""Children"": {""Kid-friendly activities"": true, ""Nursing room"": true}, ""Other"": {""LGBTQ+ friendly"": true}}",0,60,Contact for pricing,f,Hamstel Family Centre,"Hamstel Rd, Southend-on-Sea SS2 4PQ",SS2 4PQ,51.54599570,0.73730370,Multiple,Various times,,,http://www.southendfamilycentres.co.uk/,General Classes,4.60,45,0,t,2025-05-26 15:01:38.827271,+441702220810,Southend-on-Sea,,,,,,,,,,,,,,,,5
128,Kids Kingdom,"Softplay centre including a large slide, hosting regular activities/events with garden and a cafe.",0,60,Contact for pricing,f,Kids Kingdom,"Kids Kingdom Garon Park, Eastern Ave, Southend-on-Sea SS2 4FA",SS2 4FA,51.55263430,0.73718190,Multiple,Various times,,,http://www.kidskingdom-southend.co.uk/,Play Groups,4.20,577,0,t,2025-05-26 15:01:39.346537,+441702462747,Southend-on-Sea,,,,,,,,,,,,,,,,5
130,First Steps Dance,"{""Children"": {""Good for kids"": true}}",0,60,Contact for pricing,f,First Steps Dance,"St Edmund's Community Centre, 15 St Edmund's Cl, Southend-on-Sea SS2 4BL",SS2 4BL,51.55069380,0.73080620,Multiple,Various times,,,http://toddlerdance.co.uk/,Dance & Movement,5.00,8,0,t,2025-05-26 15:01:39.506214,,Southend-on-Sea,,,,,,,,,,,,,,,,5
106,Bloom Durham West Baby Classes - Witton Gilbert (GROUPED),"{""Accessibility"": {""Wheelchair-accessible car park"": true, ""Wheelchair-accessible entrance"": true}}",0,12,Contact for pricing,f,Bloom Durham West Baby Classes - Witton Gilbert,"Sacriston Ln, Witton Gilbert, Durham DH7 6TF",DH7 6TF,54.80664970,-1.63855670,Multiple,Various times,,,http://www.bloombabyclasses.com/durham-west,General Classes,5.00,3,0,f,2025-05-26 15:01:37.500364,+447539700362,Durham,,,,,,,,,,,,,,,,5
110,Little Acorns Forest Schools Ltd (GROUPED),"{""Service options"": {""On-site services"": true, ""Online classes"": false}, ""Accessibility"": {""Wheelchair-accessible car park"": true, ""Wheelchair-accessible entrance"": true}, ""Amenities"": {""Gender-neutral toilets"": true}, ""Planning"": {""Appointment required"": true}}",0,60,Contact for pricing,f,Little Acorns Forest Schools Ltd,"14 Foxglove Ave, Moira, Donisthorpe, Swadlincote LE65 2UP",LE65 2UP,52.72475740,-1.53652150,Multiple,Various times,,,http://www.forestschooltraininguk.co.uk/,General Classes,5.00,45,0,f,2025-05-26 15:01:37.836972,+447724601147,Swadlincote,,,,,,,,,,,,,,,,5
126,Baby Sensory Rayleigh and Castle Point,"{""From the business"": {""Identifies as women-owned"": true}, ""Accessibility"": {""Wheelchair-accessible car park"": true, ""Wheelchair-accessible entrance"": true}, ""Other"": {""Identifies as women-owned"": true}}",0,12,Contact for pricing,f,Baby Sensory Rayleigh and Castle Point,"100a High St, Rayleigh SS6 7BY",SS6 7BY,51.58622890,0.60478240,Tuesday,10:45am,,,http://www.babysensory.com/benfleet,Sensory Play,5.00,8,0,t,2025-05-26 15:01:39.153722,+447463782210,Rayleigh,,,,,,,,,,,,,,,,5
98,Chingford Baby Sensory (GROUPED),"{""Accessibility"": {""Wheelchair-accessible entrance"": true}, ""Planning"": {""Appointment required"": true}}",0,12,Contact for pricing,f,Chingford Baby Sensory,"Mornington Hall, The Green Walk, London E4 7EN",E4 7EN,51.63167750,0.00108670,Tuesday,9:30am,,,https://www.babysensory.com/loughton,Sensory Play,4.00,1,0,f,2025-05-26 15:01:36.842709,+447753605850,London,,,,,,,,,,,,,,,,5
116,Donisthorpe Woodlands Centre (GROUPED),"{""Accessibility"": {""Wheelchair-accessible car park"": true, ""Wheelchair-accessible entrance"": true}}",0,60,Contact for pricing,f,Donisthorpe Woodlands Centre,"Church St, Donisthorpe, Swadlincote DE12 7PX",DE12 7PX,52.72354800,-1.53015000,Multiple,Various times,,,,Play Groups,4.70,15,0,f,2025-05-26 15:01:38.329888,+441530272203,Swadlincote,,,,,,,,,,,,,,,,5
112,EMSA Leicestershire,"{""From the business"": {""Identifies as women-owned"": true}, ""Accessibility"": {""Wheelchair-accessible car park"": true, ""Wheelchair-accessible entrance"": true, ""Wheelchair-accessible seating"": true, ""Wheelchair-accessible toilet"": true}, ""Parking"": {""Free parking lot"": true}, ""Other"": {""Identifies as women-owned"": true}}",0,60,Free,f,EMSA Leicestershire,"Grace Dieu Mnr Dr, Coalville LE67 5UG",LE67 5UG,52.75718700,-1.35180220,Thursday,10:00am,,,http://www.em-sa.co.uk/,Swimming,5.00,28,0,t,2025-05-26 15:01:38.005189,+447514877640,Coalville,,,,,,,,,,,,,,,,5
108,Birth & Bloom,"{""Accessibility"": {""Wheelchair-accessible car park"": true}}",0,60,Contact for pricing,f,Birth & Bloom,"4, Church Yard, Ashby-de-la-Zouch LE65 1AA",LE65 1AA,52.74756040,-1.46711610,Saturday,10:00am,,,http://birthandbloom.net/,General Classes,5.00,46,0,t,2025-05-26 15:01:37.673385,,Ashby-de-la-Zouch,,,,,,,,,,,,,,,,5
114,Heafield Lucy (GROUPED),"{""Accessibility"": {""Wheelchair-accessible car park"": true}, ""Children"": {""Good for kids"": true}}",0,60,Contact for pricing,f,Heafield Lucy,"13 Tamworth Rd, Ashby-de-la-Zouch LE65 2PW",LE65 2PW,52.74197980,-1.47567430,Saturday,10:00am,,,,Dance & Movement,4.00,4,0,f,2025-05-26 15:01:38.163084,+447944349501,Ashby-de-la-Zouch,,,,,,,,,,,,,,,,5
118,Stagecoach,"{""Accessibility"": {""Wheelchair-accessible car park"": true, ""Wheelchair-accessible entrance"": true}, ""Children"": {""Good for kids"": true}}",0,60,Contact for pricing,f,Stagecoach,"Ivanhoe College, North St, Ashby-de-la-Zouch LE65 1HX",LE65 1HX,52.74995010,-1.46920660,Saturday,10:30am,,,https://www.stagecoach.co.uk/ashbydelazouch?utm_source=google,General Classes,5.00,1,0,t,2025-05-26 15:01:38.504251,+441332512555,Ashby-de-la-Zouch,,,,,,,,,,,,,,,,5
101,Baby College,"{""Service options"": {""Online classes"": true, ""On-site services"": true}, ""Accessibility"": {""Wheelchair-accessible car park"": true, ""Wheelchair-accessible entrance"": true}}",0,12,Contact for pricing,f,Baby College,"Unit 2, the old coal yard, Little Waltham Rd, Broomfield, Chelmsford CM1 7TG",CM1 7TG,51.76581500,0.48769610,Multiple,Various times,,,,General Classes,5.00,1,0,t,2025-05-26 15:01:37.091712,+447871119037,Chelmsford,,,,,,,,,,,,,,,,5
103,Baby and Toddler classes- Tappy Toes Epping & Harlow,"{""Service options"": {""On-site services"": true}, ""Accessibility"": {""Wheelchair-accessible car park"": true}, ""Children"": {""Good for kids"": true}, ""Parking"": {""Free of charge street parking"": true}}",0,12,Free,f,Baby and Toddler classes- Tappy Toes Epping & Harlow,"United Reformed Church, Lindsey St, Epping CM16 6RB",CM16 6RB,51.70455550,0.11557640,Multiple,Various times,,,http://www.tappytoes.com/toddler-classes-epping,Dance & Movement,5.00,5,0,t,2025-05-26 15:01:37.254598,+447506760644,Epping,,,,,,,,,,,,,,,,5
105,Bloom Baby Classes Durham,"{""Service options"": {""Same-day delivery"": false}, ""Accessibility"": {""Wheelchair-accessible car park"": true, ""Wheelchair-accessible entrance"": true}}",0,12,Contact for pricing,f,Bloom Baby Classes Durham,"Masonic Hall Bungalow, Station Rd, Penshaw, Houghton le Spring DH4 7LQ",DH4 7LQ,54.86907740,-1.49647660,Multiple,Various times,,,https://www.bloombabyclasses.com/durham,General Classes,5.00,2,0,t,2025-05-26 15:01:37.41972,+447392295628,Houghton le Spring,,,,,,,,,,,,,,,,5
107,Tots Play Newport and Cwmbran - Baby and Toddler Classes,"{""From the business"": {""Identifies as women-owned"": true}, ""Service options"": {""On-site services"": true}, ""Accessibility"": {""Wheelchair-accessible car park"": true, ""Wheelchair-accessible entrance"": true}, ""Crowd"": {""LGBTQ+ friendly"": true, ""Transgender safe space"": true}, ""Other"": {""LGBTQ+ friendly"": true, ""Identifies as women-owned"": true}}",0,12,Contact for pricing,f,Tots Play Newport and Cwmbran - Baby and Toddler Classes,"Graig Community Centre, Cowshed Ln, Bassaleg, Newport NP10 8HZ",NP10 8HZ,51.57608600,-3.05267650,Multiple,Various times,,,http://www.totsplay.co.uk/newport-cwmbran,Play Groups,5.00,24,0,t,2025-05-26 15:01:37.585326,+447894290031,Newport,,,,,,,,,,,,,,,,5
129,Prince Avenue Family Centre,"{""Accessibility"": {""Wheelchair-accessible car park"": true, ""Wheelchair-accessible entrance"": true}, ""Amenities"": {""Gender-neutral toilets"": true}}",0,60,Contact for pricing,f,Prince Avenue Family Centre,"Family Centres, Prince Ave, Hornby Ave, Westcliff-on-Sea, Southend-on-Sea, Westcliff-on-Sea SS0 0LG",SS0 0LG,51.56082870,0.69426800,Multiple,Various times,,,https://www.southendfamilycentres.co.uk/,General Classes,5.00,1,0,t,2025-05-26 15:01:39.42536,+441702220810,Westcliff-on-Sea,,,,,,,,,,,,,,,,5
121,Do It Like A Mother (GROUPED),"{""Service options"": {""On-site services"": true}, ""Accessibility"": {""Wheelchair-accessible entrance"": true}, ""Amenities"": {""Gender-neutral toilets"": true, ""Toilet"": true}, ""Planning"": {""Appointments recommended"": true}}",0,60,Contact for pricing,f,Do It Like A Mother,"861 London Rd, Westcliff-on-Sea, Southend-on-Sea, Westcliff-on-Sea SS0 9SZ",SS0 9SZ,51.54588850,0.67386290,Multiple,Various times,,,http://doitlikeamother.co.uk/,General Classes,5.00,5,0,f,2025-05-26 15:01:38.748673,,Westcliff-on-Sea,,,,,,,,,,,,,,,,5
123,The Toddler Lounge (GROUPED),"{""Accessibility"": {""Wheelchair-accessible entrance"": true, ""Wheelchair-accessible toilet"": true}, ""Children"": {""Kid-friendly activities"": true}}",12,60,Contact for pricing,f,The Toddler Lounge,"415 Westborough Rd, Westcliff-on-Sea, Southend-on-Sea, Westcliff-on-Sea SS0 9TN",SS0 9TN,51.54773970,0.68023710,Multiple,Various times,,,https://www.thetoddlerlounge.co.uk/,General Classes,5.00,4,0,f,2025-05-26 15:01:38.907964,+441702965521,Westcliff-on-Sea,,,,,,,,,,,,,,,,5
113,TinyTalk South Derby and Ashby-de-la-Zouch,"{""Accessibility"": {""Wheelchair-accessible car park"": true}}",0,60,Contact for pricing,f,TinyTalk South Derby and Ashby-de-la-Zouch,"5 Burton Rd, Ashby-de-la-Zouch LE65 2LF",LE65 2LF,52.74806540,-1.47423910,Saturday,10:00am,,,https://www.tinytalk.co.uk/emilywatson,General Classes,5.00,7,0,t,2025-05-26 15:01:38.083532,,Ashby-de-la-Zouch,,,,,,,,,,,,,,,,5
117,Incredible Kids Ashby,"{""Accessibility"": {""Wheelchair-accessible car park"": true, ""Wheelchair-accessible entrance"": true}}",0,60,Contact for pricing,f,Incredible Kids Ashby,"Norman court, Ivanhoe Business Park, 3, Ashby-de-la-Zouch LE65 2UZ",LE65 2UZ,52.76119830,-1.47845000,Saturday,10:00am,,,https://www.incrediblekidsdaynursery.co.uk/,General Classes,4.50,8,0,t,2025-05-26 15:01:38.410908,+441530415566,Ashby-de-la-Zouch,,,,,,,,,,,,,,,,5
127,Baby Sensory Barleylands,"{""Accessibility"": {""Wheelchair-accessible car park"": true, ""Wheelchair-accessible entrance"": true}}",0,12,Contact for pricing,f,Baby Sensory Barleylands,"Unit 44, Barleylands Craft Village Barleylands Rd, Billericay CM11 2UJ",CM11 2UJ,51.60090910,0.44617970,Tuesday,10:45am,,,http://www.babysensory.com/Billericay,Sensory Play,5.00,1,0,t,2025-05-26 15:01:39.241504,+447920081178,Billericay,,,,,,,,,,,,,,,,5
115,Simon Coope Karate School (GROUPED),"{""Accessibility"": {""Wheelchair-accessible car park"": true, ""Wheelchair-accessible entrance"": true}}",0,60,Contact for pricing,f,Simon Coope Karate School,"Hood Park Leisure Center, North St, Ashby-de-la-Zouch LE65 1HS",LE65 1HS,52.74893100,-1.47122470,Saturday,10:00am,,,http://www.leicesterkarate.net/,General Classes,4.40,5,0,f,2025-05-26 15:01:38.247182,+447906261769,Ashby-de-la-Zouch,,,,,,,,,,,,,,,,5
99,Water Babies at Oak View School,"{""Accessibility"": {""Wheelchair-accessible car park"": true}}",0,60,Contact for pricing,f,Water Babies at Oak View School,"Whitehills Rd, Loughton IG10 1TS",IG10 1TS,51.64976120,0.06927980,Saturday,9:30am,,,https://www.waterbabies.co.uk/classes/london-north-east/oak-view-school,Swimming,5.00,1,0,t,2025-05-26 15:01:36.927386,+442089894821,Loughton,,,,,,,,,,,,,,,,5
125,Water Babies @ Twin Oaks,{},0,60,Contact for pricing,f,Water Babies @ Twin Oaks,"56 Whitehouse Rd, Southend-on-Sea, Leigh-on-Sea SS9 5SR",SS9 5SR,51.56868240,0.66597300,Saturday,9:30am,,,https://www.waterbabies.co.uk/classes/essex/the-oaks,Swimming,5.00,2,0,t,2025-05-26 15:01:39.065547,+441708444345,Leigh-on-Sea,,,,,,,,,,,,,,,,5
111,"JAKS Academy of Dance, Drama & Music","{""Accessibility"": {""Wheelchair-accessible entrance"": false}, ""Children"": {""Good for kids"": true}}",0,60,Contact for pricing,f,"JAKS Academy of Dance, Drama & Music","Saxon House, 3 Union Psge, Ashby-de-la-Zouch LE65 1BW",LE65 1BW,52.74623410,-1.47179650,Tuesday,10:15am,,,http://www.jaks-academy.co.uk/#sample-page,Music & Singing,5.00,4,0,t,2025-05-26 15:01:37.923378,+447748677854,Ashby-de-la-Zouch,,,,,,,,,,,,,,,,5
133,Tina Phelps Stage School,"{""Accessibility"": {""Wheelchair-accessible car park"": true, ""Wheelchair-accessible entrance"": true, ""Wheelchair-accessible seating"": true, ""Wheelchair-accessible toilet"": true}, ""Planning"": {""Appointment required"": true}, ""Children"": {""Good for kids"": true}}",0,60,Contact for pricing,f,Tina Phelps Stage School,"St Luke's Rd, Southend-on-Sea SS2 4AA",SS2 4AA,51.54709900,0.72338930,Multiple,Various times,,,https://www.tinaphelpsstageschool.co.uk/,Dance & Movement,4.90,16,0,t,2025-05-26 15:01:39.748276,+441702469819,Southend-on-Sea,,,,,,,,,,,,,,,,5
137,Razzamataz Southend and Leigh on Sea,"{""Accessibility"": {""Wheelchair-accessible car park"": true, ""Wheelchair-accessible entrance"": true}, ""Amenities"": {""Child care"": true, ""Restaurant"": false}, ""Payments"": {""Debit cards"": true}, ""Children"": {""Good for kids"": true}}",0,60,Contact for pricing,f,Razzamataz Southend and Leigh on Sea,"High School for Girls, Southend-on-Sea SS2 4UZ",SS2 4UZ,51.54165410,0.74458380,Multiple,Various times,,,https://southend.razzamataz.co.uk/,Arts & Crafts,5.00,10,0,t,2025-05-26 15:01:40.066945,+447955245619,Southend-on-Sea,,,,,,,,,,,,,,,,5
139,Gannon's Martial Arts - Southend-on-Sea,"{""Accessibility"": {""Wheelchair-accessible car park"": true}, ""Children"": {""Family discount"": true}}",0,60,Contact for pricing,f,Gannon's Martial Arts - Southend-on-Sea,"Community Hall, St. Edmunds, St Edmund's Cl, Southend-on-Sea SS2 4AS",SS2 4AS,51.55040420,0.73019110,Multiple,Various times,,,https://www.gannonsmartialarts.com/southend-on-sea/,Arts & Crafts,5.00,3,0,t,2025-05-26 15:01:40.221522,+447804876638,Southend-on-Sea,,,,,,,,,,,,,,,,5
141,Tutoring With Mehroz,"{""Service options"": {""Online classes"": true, ""On-site services"": true, ""Language assistance"": ""English""}, ""Parking"": {""Free of charge street parking"": true}}",0,60,Free,f,Tutoring With Mehroz,"Sutton Rd, Southend-on-Sea SS2 5EW",SS2 5EW,51.54656130,0.71622260,Multiple,Various times,,,,Language & Communication,5.00,15,0,t,2025-05-26 15:01:40.443103,+447768481255,Southend-on-Sea,,,,,,,,,,,,,,,,5
143,Pam Freedman School of Dance,"{""Children"": {""Good for kids"": true}}",0,60,Free,f,Pam Freedman School of Dance,"55 Surbiton Rd, Southend-on-Sea SS2 4NR",SS2 4NR,51.54280170,0.73386730,Multiple,Various times,,,,Dance & Movement,5.00,2,0,t,2025-05-26 15:01:40.608014,+447970883738,Southend-on-Sea,,,,,,,,,,,,,,,,5
145,Lighthouse Child Development Centre,"{""Accessibility"": {""Wheelchair-accessible car park"": true, ""Wheelchair-accessible entrance"": true}}",0,60,Contact for pricing,f,Lighthouse Child Development Centre,"Snakes Ln, Southend-on-Sea, Leigh-on-Sea SS2 6XT",SS2 6XT,51.56570760,0.66710200,Multiple,Various times,,,,General Classes,1.90,42,0,t,2025-05-26 15:01:40.771337,+443442573952,Leigh-on-Sea,,,,,,,,,,,,,,,,5
147,Poulton Children's Centre,"{""Accessibility"": {""Wheelchair-accessible car park"": true, ""Wheelchair-accessible entrance"": true, ""Wheelchair-accessible toilet"": true}, ""Amenities"": {""Toilet"": true, ""Restaurant"": false}, ""Children"": {""Good for kids"": true}}",0,60,Contact for pricing,f,Poulton Children's Centre,"Clark St, Morecambe LA4 5HR",LA4 5HR,54.07462220,-2.86129250,Multiple,Various times,,,,General Classes,4.60,26,0,t,2025-05-26 15:01:40.94795,+441524581281,Morecambe,,,,,,,,,,,,,,,,5
149,Stanleys Community Centre,"{""Accessibility"": {""Wheelchair-accessible car park"": true, ""Wheelchair-accessible entrance"": true}}",0,60,Contact for pricing,f,Stanleys Community Centre,"79-83 Stanley Rd, Heysham, Morecambe LA3 1UT",LA3 1UT,54.06138290,-2.88303520,Multiple,Various times,,,https://stanleyscommunitycentre.co.uk/,General Classes,4.60,65,0,t,2025-05-26 15:01:41.106049,+441524410076,Morecambe,,,,,,,,,,,,,,,,5
153,PottyRoo's Ceramics and Crafts,"{""Service options"": {""Online classes"": false}, ""Accessibility"": {""Wheelchair-accessible car park"": true, ""Wheelchair-accessible entrance"": true, ""Wheelchair-accessible seating"": true, ""Wheelchair-accessible toilet"": true}, ""Planning"": {""Appointment required"": true}, ""Children"": {""Good for kids"": true}, ""Parking"": {""Free of charge street parking"": true, ""Paid parking lot"": true}}",0,60,Free,f,PottyRoo's Ceramics and Crafts,"295 Marine Rd Central, Morecambe LA4 5BY",LA4 5BY,54.07419860,-2.86437000,Multiple,Various times,,,https://www.pottyroosceramics.co.uk/,Arts & Crafts,5.00,14,0,t,2025-05-26 15:01:41.419926,+447503231954,Morecambe,,,,,,,,,,,,,,,,5
155,Lancashire Pregnancy Yoga,"{""From the business"": {""Identifies as women-owned"": true}, ""Amenities"": {""Toilet"": true}, ""Planning"": {""Appointment required"": true, ""Appointments recommended"": true}, ""Other"": {""Identifies as women-owned"": true}}",0,60,Contact for pricing,f,Lancashire Pregnancy Yoga,"Community Centre, 3 Packet Ln, Bolton-le-Sands, Carnforth LA5 8DW",LA5 8DW,54.10469900,-2.78991600,Multiple,Various times,,,,Yoga & Mindfulness,5.00,7,0,t,2025-05-26 15:01:41.589065,+447748637968,Carnforth,,,,,,,,,,,,,,,,5
159,Pauline Quirke Academy of Performing Arts Morecambe and Lancaster,"{""Accessibility"": {""Wheelchair-accessible car park"": true, ""Wheelchair-accessible entrance"": true}, ""Children"": {""Good for kids"": true}}",0,60,Contact for pricing,f,Pauline Quirke Academy of Performing Arts Morecambe and Lancaster,"Bay Leadership Academy, Osborne Rd, Morecambe LA3 1AB",LA3 1AB,54.05998330,-2.87699100,Multiple,Various times,,,https://www.pqacademy.com/academies/morecambe-and-lancaster/,Arts & Crafts,5.00,6,0,t,2025-05-26 15:01:41.902124,+447481080293,Morecambe,,,,,,,,,,,,,,,,5
166,Jodie Anne fitness,"{""Service options"": {""Online classes"": true, ""On-site services"": true}}",0,60,Contact for pricing,f,Jodie Anne fitness,"83 Ringwood Rd, Poole BH14 0RH",BH14 0RH,50.73320130,-1.95555160,Multiple,Various times,,,http://www.jodieannefitness.com/,Physical Development,5.00,154,0,t,2025-05-26 15:01:42.459292,+447860864924,Poole,,,,,,,,,,,,,,,,5
135,Southend Leisure & Tennis Centre,Community centre for sports tuition with a gym running group classes and on-site swimming pool.,0,60,Contact for pricing,f,Southend Leisure & Tennis Centre,"Garon Park Cricket Ground, Eastern Ave, Southend-on-Sea SS2 4FA",SS2 4FA,51.55460360,0.73458860,Thursday,10:00am,,,https://www.fusion-lifestyle.com/centres/southend-leisure-tennis-centre,Swimming,3.30,338,0,t,2025-05-26 15:01:39.906997,+441702613000,Southend-on-Sea,,,,,,,,,,,,,,,,5
157,Molly‚Äôs Little Minnows,"{""Service options"": {""On-site services"": true, ""Online classes"": false}}",0,60,Contact for pricing,f,Molly‚Äôs Little Minnows,"The Loyne Specialist School, Sefton Dr, Lancaster LA1 2QD",LA1 2QD,54.05957470,-2.81437770,Thursday,10:00am,,,http://www.mollyslittleminnows.co.uk/,Swimming,4.80,37,0,t,2025-05-26 15:01:41.74472,+447904835252,Lancaster,,,,,,,,,,,,,,,,5
132,Meridian Kung Fu (UK),"{""Accessibility"": {""Wheelchair-accessible car park"": true, ""Wheelchair-accessible entrance"": true}}",0,60,Contact for pricing,f,Meridian Kung Fu (UK),"10a West St, Westcliff-on-Sea, Southend-on-Sea SS2 6HJ",SS2 6HJ,51.54823680,0.70427660,Multiple,Various times,,,http://meridiankungfu.com/,Arts & Crafts,4.80,25,0,t,2025-05-26 15:01:39.668784,+447812410866,Southend-on-Sea,,,,,,,,,,,,,,,,5
134,Kidz Camp Essex,"{""Accessibility"": {""Wheelchair-accessible car park"": true, ""Wheelchair-accessible entrance"": true}}",0,60,Contact for pricing,f,Kidz Camp Essex,"Kidz Camp Essex, Hamstel Rd, Southend-on-Sea SS2 4PQ",SS2 4PQ,51.54664400,0.73748100,Multiple,Various times,,,https://www.kidzcampessex.co.uk/,General Classes,3.70,3,0,t,2025-05-26 15:01:39.829498,+441702741093,Southend-on-Sea,,,,,,,,,,,,,,,,5
136,Okami Martial Arts,"{""Service options"": {""Online classes"": true, ""Outdoor services"": true, ""On-site services"": true}, ""Accessibility"": {""Assistive hearing loop"": false, ""Wheelchair-accessible seating"": false, ""Wheelchair-accessible toilet"": false}, ""Planning"": {""Appointment required"": true}, ""Children"": {""Discounts for kids"": true, ""Family discount"": true}}",0,60,Contact for pricing,f,Okami Martial Arts,"Unit 2, Street Gym, Priory Works, Priory Ave, Southend-on-Sea SS2 6LD",SS2 6LD,51.55142970,0.70891140,Multiple,Various times,,,http://www.okamima.com/,Arts & Crafts,4.80,74,0,t,2025-05-26 15:01:39.989096,+447396079932,Southend-on-Sea,,,,,,,,,,,,,,,,5
138,A Better Start Southend,{},0,60,Contact for pricing,f,A Better Start Southend,"3rd Floor, One Hub, Maitland House Warrior Square, Southend-on-Sea SS1 2JY",SS1 2JY,51.54358420,0.71250570,Multiple,Various times,,,http://www.abetterstartsouthend.co.uk/,Arts & Crafts,4.30,4,0,t,2025-05-26 15:01:40.144187,+441702880370,Southend-on-Sea,,,,,,,,,,,,,,,,5
142,Cambridge Road Children's Centre,"{""Accessibility"": {""Wheelchair-accessible car park"": true, ""Wheelchair-accessible entrance"": true}}",0,60,Contact for pricing,f,Cambridge Road Children's Centre,"40-42 Cambridge Rd, Westcliff-on-Sea, Southend-on-Sea SS1 1EB",SS1 1EB,51.53585010,0.70568780,Multiple,Various times,,,http://www.southendfamilycentres.co.uk/,General Classes,3.00,2,0,t,2025-05-26 15:01:40.523692,+441702220810,Southend-on-Sea,,,,,,,,,,,,,,,,5
144,Baby and toddler classes-Tappy Toes Chelmsford (Chelmer village),"{""Children"": {""Good for kids"": true}}",0,12,Contact for pricing,f,Baby and toddler classes-Tappy Toes Chelmsford (Chelmer village),"Church of Our Saviour, Ashton Pl, Chelmer Village, Chelmsford CM2 6ST",CM2 6ST,51.73491320,0.50558480,Multiple,Various times,,,https://www.tappytoes.com/TODDLER-CLASSES-CHELMSFORD,Dance & Movement,5.00,8,0,t,2025-05-26 15:01:40.691358,+447917525087,Chelmsford,,,,,,,,,,,,,,,,5
146,Welcome to the UK,"{""Accessibility"": {""Wheelchair-accessible car park"": true, ""Wheelchair-accessible entrance"": true}}",0,60,Contact for pricing,f,Welcome to the UK,"Unit F39, 362 Chartwell Square, Southend-on-Sea SS2 5SP",SS2 5SP,51.54108860,0.71361540,Multiple,Various times,,,https://www.welcome2theuk.com/,General Classes,4.80,20,0,t,2025-05-26 15:01:40.861436,+441702808579,Southend-on-Sea,,,,,,,,,,,,,,,,5
150,Reading Fairy Lancaster,"{""From the business"": {""Identifies as women-owned"": true}, ""Service options"": {""On-site services"": true}, ""Accessibility"": {""Wheelchair-accessible entrance"": true, ""Assistive hearing loop"": false, ""Wheelchair-accessible seating"": false, ""Wheelchair-accessible toilet"": false}, ""Amenities"": {""Gender-neutral toilets"": true}, ""Crowd"": {""LGBTQ+ friendly"": true, ""Transgender safe space"": true}, ""Children"": {""Discounts for kids"": true, ""Family discount"": true, ""Kid-friendly activities"": true}, ""Parking"": {""Free of charge street parking"": true, ""Free parking lot"": true, ""On-site parking"": true}, ""Other"": {""LGBTQ+ friendly"": true, ""Identifies as women-owned"": true}}",0,60,Free,f,Reading Fairy Lancaster,"Church of Ascension, The Vestry, Torrisholme, Morecambe LA4 6RH",LA4 6RH,54.06666820,-2.83507090,Multiple,Various times,,,http://www.readingfairy.com/lancaster,Story Time,5.00,7,0,t,2025-05-26 15:01:41.18542,+447985364584,Morecambe,,,,,,,,,,,,,,,,5
152,Bare Necessities Pre-school Play Group,"{""Accessibility"": {""Wheelchair-accessible car park"": true, ""Wheelchair-accessible entrance"": true}}",12,60,Contact for pricing,f,Bare Necessities Pre-school Play Group,"Bare Methodist Church Hall, St Margaret's Rd, Morecambe LA4 6EF",LA4 6EF,54.07747030,-2.84385320,Multiple,Various times,,,http://www.barenecessities.org.uk/,Play Groups,5.00,2,0,t,2025-05-26 15:01:41.342275,+441524415975,Morecambe,,,,,,,,,,,,,,,,5
154,"MARTIAL ARTS, FITNESS &JUNIOR LEADERSHIP ACADEMY","{""Accessibility"": {""Wheelchair-accessible car park"": true}}",0,60,Contact for pricing,f,"MARTIAL ARTS, FITNESS &JUNIOR LEADERSHIP ACADEMY","14 Whitefield Pl, Morecambe LA3 3EA",LA3 3EA,54.05824180,-2.85183190,Multiple,Various times,,,http://www.morecambemartialarts.co.uk/,Physical Development,4.90,37,0,t,2025-05-26 15:01:41.5091,+447979544466,Morecambe,,,,,,,,,,,,,,,,5
156,Sandcastles Nursery & Beach School,"{""Accessibility"": {""Wheelchair-accessible car park"": true}}",0,60,Contact for pricing,f,Sandcastles Nursery & Beach School,"425 Marine Rd E, Morecambe LA4 6AA",LA4 6AA,54.07709580,-2.84683260,Multiple,Various times,,,http://www.nursery-morecambe.co.uk/,General Classes,5.00,10,0,t,2025-05-26 15:01:41.666335,+441524831932,Morecambe,,,,,,,,,,,,,,,,5
158,The Dance Factory,"{""Accessibility"": {""Wheelchair-accessible car park"": true}, ""Children"": {""Good for kids"": true}}",0,60,Contact for pricing,f,The Dance Factory,"Stanley Rd, Heysham, Morecambe LA3 1UP",LA3 1UP,54.06216580,-2.88391680,Multiple,Various times,,,http://www.thedancefactory.co.uk/,Dance & Movement,5.00,4,0,t,2025-05-26 15:01:41.822927,+441524421841,Morecambe,,,,,,,,,,,,,,,,5
160,Jump Rush Trampoline Park,"{""Service options"": {""On-site services"": true}, ""Accessibility"": {""Wheelchair-accessible car park"": true, ""Wheelchair-accessible entrance"": true}, ""Parking"": {""On-site parking"": true}}",0,60,Contact for pricing,f,Jump Rush Trampoline Park,"21 Northumberland St, Morecambe LA4 4AY",LA4 4AY,54.07144560,-2.87103310,Multiple,Various times,,,http://www.jump-rush.com/,General Classes,4.20,251,0,t,2025-05-26 15:01:41.980169,+441524587100,Morecambe,,,,,,,,,,,,,,,,5
162,Puddle Ducks Dorset,"{""Accessibility"": {""Wheelchair-accessible car park"": true, ""Wheelchair-accessible entrance"": true}, ""Planning"": {""Appointment required"": true}, ""Parking"": {""On-site parking"": true}}",0,60,Contact for pricing,f,Puddle Ducks Dorset,"Bayside Business Centre, Sovereign Business Park, 48 Willis Way, Poole BH15 3TB",BH15 3TB,50.73441020,-1.98946110,Thursday,10:00am,,,http://www.puddleducks.com/dorset,Swimming,4.80,20,0,t,2025-05-26 15:01:42.137491,+441202674676,Poole,,,,,,,,,,,,,,,,5
161,The City of Lancaster Gymnastics Club,"{""Service options"": {""On-site services"": true}, ""Accessibility"": {""Wheelchair-accessible car park"": true, ""Wheelchair-accessible entrance"": true}}",0,60,Contact for pricing,f,The City of Lancaster Gymnastics Club,"Lancaster Leisure Site, Wyresdale Rd, Lancaster LA1 3LA",LA1 3LA,54.03992460,-2.78193750,Multiple,Various times,,,https://www.facebook.com/lancastergymnastics/,Physical Development,4.90,7,0,t,2025-05-26 15:01:42.058731,+441524843344,Lancaster,,,,,,,,,,,,,,,,5
163,Bootcamp UK Poole - Outdoors Fitness Classes in Poole,"{""Accessibility"": {""Wheelchair-accessible car park"": true, ""Wheelchair-accessible entrance"": true}, ""Crowd"": {""LGBTQ+ friendly"": true, ""Transgender safe space"": true}, ""Other"": {""LGBTQ+ friendly"": true}}",0,60,Contact for pricing,f,Bootcamp UK Poole - Outdoors Fitness Classes in Poole,"Whitecliff Rd, Poole BH14 8DU",BH14 8DU,50.71619350,-1.95599210,Multiple,Various times,,,https://www.bcuk.uk/poole,Physical Development,5.00,65,0,t,2025-05-26 15:01:42.216663,+447720621772,Poole,,,,,,,,,,,,,,,,5
165,The Ark,"A soft play area for under-11's, ice-skating rink, caf√© & ice cream kiosk under one roof.",0,60,11,f,The Ark,"82 Parkstone Rd, Poole BH15 2SF",BH15 2SF,50.72075670,-1.96513160,Multiple,Various times,,,http://www.thearkpoolepark.co.uk/,Play Groups,3.80,789,0,t,2025-05-26 15:01:42.381945,+441202717197,Poole,,,,,,,,,,,,,,,,5
167,Unite Stage Academy UK,"{""Accessibility"": {""Wheelchair-accessible car park"": true}, ""Amenities"": {""Gender-neutral toilets"": true}, ""Children"": {""Good for kids"": true}, ""Parking"": {""Free of charge street parking"": true, ""Free parking lot"": true, ""Paid multi-storey car park"": true, ""Paid street parking"": true}}",0,60,Free,f,Unite Stage Academy UK,"Unite Stage Academy, Poole BH12 2LW",BH12 2LW,50.72924420,-1.93890550,Multiple,Various times,,,https://www.unitestageacademy.co.uk/,Dance & Movement,4.70,46,0,t,2025-05-26 15:01:42.535936,+447554257903,Poole,,,,,,,,,,,,,,,,5
169,The Orchard Academy Of Performing Arts,"{""Accessibility"": {""Wheelchair-accessible car park"": true, ""Wheelchair-accessible entrance"": true}, ""Children"": {""Good for kids"": true}}",0,60,Contact for pricing,f,The Orchard Academy Of Performing Arts,"Albany Park, 28, Cabot Ln, Poole BH17 7BX",BH17 7BX,50.74350540,-1.98836930,Multiple,Various times,,,http://www.theorchardacademy.co.uk/,Dance & Movement,5.00,6,0,t,2025-05-26 15:01:42.695256,+447860772000,Poole,,,,,,,,,,,,,,,,5
175,MyDanceParty,"{""Accessibility"": {""Wheelchair-accessible car park"": true}}",0,60,Contact for pricing,f,MyDanceParty,"5 Richmond Rd, Poole BH14 0BP",BH14 0BP,50.72836240,-1.93882430,Multiple,Various times,,,,Dance & Movement,5.00,1,0,t,2025-05-26 15:01:43.168311,+447789648929,Poole,,,,,,,,,,,,,,,,5
177,Hen Pamper Parties & Children's Pamper Parties - Pamper PartyCo,"{""Accessibility"": {""Wheelchair-accessible car park"": true}, ""Amenities"": {""Gender-neutral toilets"": true, ""Toilet"": true}, ""Planning"": {""Appointments recommended"": true}, ""Payments"": {""Credit cards"": true, ""Debit cards"": true, ""NFC mobile payments"": true}, ""Children"": {""Good for kids"": true}}",0,60,Contact for pricing,f,Hen Pamper Parties & Children's Pamper Parties - Pamper PartyCo,"Ringwood Road, Poole BH14 0RN",BH14 0RN,50.72670450,-1.96515650,Multiple,Various times,,,https://www.pamperpartyco.co.uk/,Arts & Crafts,4.30,46,0,t,2025-05-26 15:01:43.328474,+441202982631,Poole,,,,,,,,,,,,,,,,5
179,Breeze Academy of Dance,"{""Service options"": {""Online classes"": true}, ""Accessibility"": {""Wheelchair-accessible car park"": true}, ""Children"": {""Good for kids"": true}}",0,60,Contact for pricing,f,Breeze Academy of Dance,"75A Ringwood Rd, Poole BH14 0RG",BH14 0RG,50.73311880,-1.95749290,Multiple,Various times,,,http://breezeacademydance.co.uk/,Dance & Movement,5.00,7,0,t,2025-05-26 15:01:43.488815,+447484664811,Poole,,,,,,,,,,,,,,,,5
171,Stagecoach Performing Arts Poole,"{""Accessibility"": {""Wheelchair-accessible car park"": true, ""Wheelchair-accessible entrance"": true}, ""Children"": {""Good for kids"": true}}",0,60,Contact for pricing,f,Stagecoach Performing Arts Poole,"St.Edward's School, Dale Valley Rd, Poole BH15 3HY",BH15 3HY,50.73840800,-1.96106800,Saturday,10:30am,,,https://www.stagecoach.co.uk/?utm_source=google,Arts & Crafts,5.00,1,0,t,2025-05-26 15:01:42.85064,+441962859995,Poole,,,,,,,,,,,,,,,,5
173,BEAST CLUB,"{""Accessibility"": {""Wheelchair-accessible car park"": true}, ""Offerings"": {""Sauna"": true}, ""Amenities"": {""Wi-Fi"": true, ""Swimming pool"": true}, ""Children"": {""Good for kids"": true}}",0,60,Contact for pricing,f,BEAST CLUB,"54 Willis Way, Poole BH15 3SY",BH15 3SY,50.73518450,-1.98747750,Thursday,10:00am,,,,Swimming,5.00,3,0,t,2025-05-26 15:01:43.010918,+447722156537,Poole,,,,,,,,,,,,,,,,5
168,Aimee's Dance Academy,"{""Accessibility"": {""Wheelchair-accessible car park"": true, ""Wheelchair-accessible entrance"": true}, ""Children"": {""Good for kids"": true}}",0,60,Contact for pricing,f,Aimee's Dance Academy,"262 Ringwood Rd, Poole BH14 0RS",BH14 0RS,50.73402780,-1.95487010,Multiple,Various times,,,http://www.aimeesdanceacademy.co.uk/,Dance & Movement,5.00,32,0,t,2025-05-26 15:01:42.613453,+447828789147,Poole,,,,,,,,,,,,,,,,5
174,Healing Haven Yoga Studio in Poole,"{""From the business"": {""Identifies as women-owned"": true}, ""Service options"": {""Outdoor services"": true, ""On-site services"": true, ""Online classes"": false}, ""Amenities"": {""Gender-neutral toilets"": true, ""Toilet"": true}, ""Crowd"": {""LGBTQ+ friendly"": true}, ""Planning"": {""Appointment required"": true, ""Appointments recommended"": true}, ""Other"": {""LGBTQ+ friendly"": true, ""Identifies as women-owned"": true}}",0,60,Contact for pricing,f,Healing Haven Yoga Studio in Poole,"119 Bournemouth Rd, Poole BH14 9HR",BH14 9HR,50.72478250,-1.93753920,Multiple,Various times,,,http://www.healinghavenpoole.com/,Yoga & Mindfulness,5.00,167,0,t,2025-05-26 15:01:43.090904,,Poole,,,,,,,,,,,,,,,,5
176,Dorset Adventure Sports,"{""Accessibility"": {""Wheelchair-accessible car park"": true, ""Wheelchair-accessible entrance"": true}, ""Planning"": {""Appointment required"": true}, ""Parking"": {""Free parking lot"": true, ""On-site parking"": true}}",0,60,Free,f,Dorset Adventure Sports,"Unit 9, Dorset Adventure Sports, Birch Copse, Technology Rd, Poole BH17 7FH",BH17 7FH,50.74521200,-1.99593300,Multiple,Various times,,,https://www.dorsetadventuresports.co.uk/,General Classes,4.90,235,0,t,2025-05-26 15:01:43.249577,+441202937552,Poole,,,,,,,,,,,,,,,,5
178,BASE,"{""From the business"": {""Identifies as women-owned"": true}, ""Service options"": {""Outdoor services"": true, ""On-site services"": true}, ""Accessibility"": {""Wheelchair-accessible car park"": true}, ""Amenities"": {""Toilet"": true}, ""Crowd"": {""LGBTQ+ friendly"": true, ""Transgender safe space"": true}, ""Planning"": {""Appointments recommended"": true}, ""Parking"": {""Free of charge street parking"": true}, ""Other"": {""LGBTQ+ friendly"": true, ""Identifies as women-owned"": true}}",0,60,Free,f,BASE,"1 Victoria Rd, Poole BH12 3BA",BH12 3BA,50.72937850,-1.94207480,Multiple,Various times,,,https://www.thebasespace.com/?utm_source=organic,General Classes,5.00,17,0,t,2025-05-26 15:01:43.411568,+447481901588,Poole,,,,,,,,,,,,,,,,5
180,Pole crazy,"{""Service options"": {""Online classes"": true, ""On-site services"": true}, ""Accessibility"": {""Wheelchair-accessible car park"": true, ""Wheelchair-accessible seating"": false, ""Wheelchair-accessible toilet"": false}, ""Amenities"": {""Gender-neutral toilets"": true}, ""Crowd"": {""LGBTQ+ friendly"": true, ""Transgender safe space"": true}, ""Planning"": {""Appointment required"": true}, ""Children"": {""Good for kids"": true}, ""Other"": {""LGBTQ+ friendly"": true}}",0,60,Contact for pricing,f,Pole crazy,"Unit 1a, 262 Ringwood Rd, Poole BH14 0RS",BH14 0RS,50.73404180,-1.95462680,Multiple,Various times,,,http://www.polecrazy.com/,Dance & Movement,5.00,41,0,t,2025-05-26 15:01:43.633643,+447595999268,Poole,,,,,,,,,,,,,,,,5
181,Flip Out Poole,"{""Accessibility"": {""Wheelchair-accessible car park"": true, ""Wheelchair-accessible entrance"": true}}",0,60,Contact for pricing,f,Flip Out Poole,"Unit 45-55 (Store 6, Poole BH15 1SZ",BH15 1SZ,50.71837560,-1.98074660,Multiple,Various times,,,https://www.flipout.co.uk/,General Classes,4.50,858,0,t,2025-05-26 15:01:43.716002,+441202143742,Poole,,,,,,,,,,,,,,,,5
182,Hybrid Gym Parkstone,"{""Accessibility"": {""Wheelchair-accessible car park"": true}, ""Atmosphere"": {""Shower"": true}, ""Crowd"": {""LGBTQ+ friendly"": true, ""Transgender safe space"": true}, ""Planning"": {""Membership required"": true}, ""Parking"": {""Free of charge street parking"": true, ""Paid parking lot"": true, ""Paid street parking"": true}, ""Other"": {""LGBTQ+ friendly"": true}}",0,60,Free,f,Hybrid Gym Parkstone,"350A Ashley Rd, Poole BH14 9DF",BH14 9DF,50.72882940,-1.93690860,Multiple,Various times,,,https://hybridgymparkstone.univer.se/,Physical Development,5.00,6,0,t,2025-05-26 15:01:43.798601,,Poole,,,,,,,,,,,,,,,,5
183,Dance Majic,"{""Accessibility"": {""Wheelchair-accessible car park"": true}, ""Children"": {""Good for kids"": true}}",0,60,Contact for pricing,f,Dance Majic,"316 Ringwood Rd, Poole BH14 0RY",BH14 0RY,50.73488280,-1.95248320,Multiple,Various times,,,https://dance-majic.co.uk/,Dance & Movement,4.60,16,0,t,2025-05-26 15:01:43.875277,+447928720836,Poole,,,,,,,,,,,,,,,,5
184,Centre Stage School of Dance and Performing Arts,"{""Accessibility"": {""Wheelchair-accessible car park"": true}, ""Children"": {""Good for kids"": true}}",0,60,Contact for pricing,f,Centre Stage School of Dance and Performing Arts,"St Lukes Church Hall, 37 Birchwood Rd, Poole BH14 9NW",BH14 9NW,50.72197970,-1.93327040,Multiple,Various times,,,http://centrestagedance.org/,Dance & Movement,5.00,4,0,t,2025-05-26 15:01:43.956311,+441202733231,Poole,,,,,,,,,,,,,,,,5
185,Polz Apart Aerial Dance,"{""Amenities"": {""Gender-neutral toilets"": true}, ""Crowd"": {""LGBTQ+ friendly"": true, ""Transgender safe space"": true}, ""Children"": {""Good for kids"": true}, ""Other"": {""LGBTQ+ friendly"": true}}",0,60,Contact for pricing,f,Polz Apart Aerial Dance,"246, Ashley Road Parkstone, Poole BH14 9BZ",BH14 9BZ,50.72859440,-1.93298110,Multiple,Various times,,,http://www.polzapart.co.uk/,Dance & Movement,5.00,117,0,t,2025-05-26 15:01:44.039472,+447739735970,Poole,,,,,,,,,,,,,,,,5
186,Toddler Dance Classes- Tappy Toes Wimborne,"{""Service options"": {""On-site services"": true, ""Online classes"": false}, ""Planning"": {""Appointment required"": true}, ""Children"": {""Good for kids"": true}}",12,60,Contact for pricing,f,Toddler Dance Classes- Tappy Toes Wimborne,"The Allendale Centre, Hanham Rd, Wimborne BH21 1AS",BH21 1AS,50.80109480,-1.98486360,Multiple,Various times,,,https://www.tappytoes.com/toddler-classes-wimborne,Dance & Movement,5.00,31,0,t,2025-05-26 15:01:44.120512,+447957148960,Wimborne,,,,,,,,,,,,,,,,5
188,Tier 1 Martial Arts,"{""Accessibility"": {""Wheelchair-accessible car park"": true, ""Wheelchair-accessible entrance"": true}}",0,60,1,f,Tier 1 Martial Arts,"Unit B, 58 A, 58 Nuffield Rd, Poole BH17 0RT",BH17 0RT,50.74187100,-1.97623340,Multiple,Various times,,,http://www.tier1ma.com/,Arts & Crafts,5.00,25,0,t,2025-05-26 15:01:44.326227,+447773697580,Poole,,,,,,,,,,,,,,,,5
187,babyballet Bournemouth and Poole,"{""Service options"": {""On-site services"": true}, ""Children"": {""Good for kids"": true}}",0,12,Contact for pricing,f,babyballet Bournemouth and Poole,"St Katharine's Church Hall, 17 Church Rd, Southbourne, Bournemouth BH6 4AR",BH6 4AR,50.72134750,-1.79322920,Tuesday,10:00am,,,https://babyballet.co.uk/babyballet-school/bournemouth-poole/,Dance & Movement,5.00,46,0,t,2025-05-26 15:01:44.199653,+447915665120,Bournemouth,,,,,,,,,,,,,,,,5
189,Poole Amateur Boxing Club,"{""Accessibility"": {""Wheelchair-accessible car park"": true, ""Wheelchair-accessible entrance"": true}}",0,60,Contact for pricing,f,Poole Amateur Boxing Club,"Rossmore Rd, Poole BH12 3NJ",BH12 3NJ,50.74184940,-1.94103110,Multiple,Various times,,,http://pooleabc.co.uk/,General Classes,4.60,20,0,t,2025-05-26 15:01:44.402934,+447792414235,Poole,,,,,,,,,,,,,,,,5
191,"Loving Life Lillie - Yoga, Breathwork and Sound Healing in Poole and Bournemouth","{""Service options"": {""On-site services"": true}}",0,60,Contact for pricing,f,"Loving Life Lillie - Yoga, Breathwork and Sound Healing in Poole and Bournemouth","119 Bournemouth Rd, Poole BH14 9HR",BH14 9HR,50.72478250,-1.93753920,Multiple,Various times,,,http://www.lovinglifelillie.com/,Yoga & Mindfulness,5.00,135,0,t,2025-05-26 15:01:44.568603,+447445686800,Poole,,,,,,,,,,,,,,,,5
193,The Carrington Hollywood Academy of Dance,"{""Children"": {""Good for kids"": true}}",0,60,Contact for pricing,f,The Carrington Hollywood Academy of Dance,"THE STUDIOS, Globe Ln, Poole BH15 1AS",BH15 1AS,50.71593600,-1.98309210,Multiple,Various times,,,https://hollywooddanceacademy.co.uk/,Dance & Movement,5.00,3,0,t,2025-05-26 15:01:44.735906,+447879681682,Poole,,,,,,,,,,,,,,,,5
195,Bendall's Boxing,"{""Accessibility"": {""Wheelchair-accessible car park"": true}}",0,60,Contact for pricing,f,Bendall's Boxing,"382 Ashley Rd, Poole BH14 9DQ",BH14 9DQ,50.72908640,-1.93860950,Multiple,Various times,,,https://bendallsboxing.co.uk/,Physical Development,3.80,4,0,t,2025-05-26 15:01:44.897572,+447855942151,Poole,,,,,,,,,,,,,,,,5
204,Baby College,"{""Service options"": {""Online classes"": true, ""On-site services"": true}, ""Accessibility"": {""Wheelchair-accessible car park"": true, ""Wheelchair-accessible entrance"": true}}",0,12,Contact for pricing,f,Baby College,"Unit 2, the old coal yard, Little Waltham Rd, Broomfield, Chelmsford CM1 7TG",CM1 7TG,51.76581500,0.48769610,Multiple,Various times,,,,General Classes,5.00,1,0,t,2025-05-26 15:02:39.366741,+447871119037,Chelmsford,,,,,,,,,,,,,,,,5
206,Baby and Toddler classes- Tappy Toes Epping & Harlow,"{""Service options"": {""On-site services"": true}, ""Accessibility"": {""Wheelchair-accessible car park"": true}, ""Children"": {""Good for kids"": true}, ""Parking"": {""Free of charge street parking"": true}}",0,12,Free,f,Baby and Toddler classes- Tappy Toes Epping & Harlow,"United Reformed Church, Lindsey St, Epping CM16 6RB",CM16 6RB,51.70455550,0.11557640,Multiple,Various times,,,http://www.tappytoes.com/toddler-classes-epping,Dance & Movement,5.00,5,0,t,2025-05-26 15:02:39.530365,+447506760644,Epping,,,,,,,,,,,,,,,,5
208,Bloom Baby Classes Durham,"{""Service options"": {""Same-day delivery"": false}, ""Accessibility"": {""Wheelchair-accessible car park"": true, ""Wheelchair-accessible entrance"": true}}",0,12,Contact for pricing,f,Bloom Baby Classes Durham,"Masonic Hall Bungalow, Station Rd, Penshaw, Houghton le Spring DH4 7LQ",DH4 7LQ,54.86907740,-1.49647660,Multiple,Various times,,,https://www.bloombabyclasses.com/durham,General Classes,5.00,2,0,t,2025-05-26 15:02:39.688946,+447392295628,Houghton le Spring,,,,,,,,,,,,,,,,5
210,Tots Play Newport and Cwmbran - Baby and Toddler Classes,"{""From the business"": {""Identifies as women-owned"": true}, ""Service options"": {""On-site services"": true}, ""Accessibility"": {""Wheelchair-accessible car park"": true, ""Wheelchair-accessible entrance"": true}, ""Crowd"": {""LGBTQ+ friendly"": true, ""Transgender safe space"": true}, ""Other"": {""LGBTQ+ friendly"": true, ""Identifies as women-owned"": true}}",0,12,Contact for pricing,f,Tots Play Newport and Cwmbran - Baby and Toddler Classes,"Graig Community Centre, Cowshed Ln, Bassaleg, Newport NP10 8HZ",NP10 8HZ,51.57608600,-3.05267650,Multiple,Various times,,,http://www.totsplay.co.uk/newport-cwmbran,Play Groups,5.00,24,0,t,2025-05-26 15:02:39.867244,+447894290031,Newport,,,,,,,,,,,,,,,,5
202,Water Babies at Oak View School,"{""Accessibility"": {""Wheelchair-accessible car park"": true}}",0,60,Contact for pricing,f,Water Babies at Oak View School,"Whitehills Rd, Loughton IG10 1TS",IG10 1TS,51.64976120,0.06927980,Saturday,10:30am,,,https://www.waterbabies.co.uk/classes/london-north-east/oak-view-school,Swimming,5.00,1,0,t,2025-05-26 15:02:39.210947,+442089894821,Loughton,,,,,,,,,,,,,,,,5
198,Little Oaks Children's Centre (GROUPED),"{""Accessibility"": {""Wheelchair-accessible car park"": true, ""Wheelchair-accessible entrance"": true, ""Wheelchair-accessible toilet"": true}, ""Amenities"": {""Toilet"": true, ""Restaurant"": false}, ""Children"": {""Good for kids"": true}}",0,60,Contact for pricing,f,Little Oaks Children's Centre,"Loughton Resourse Centre, Torrington Drive, Loughton IG10 3TD",IG10 3TD,51.64899060,0.08860050,Multiple,Various times,,,,General Classes,4.30,22,0,f,2025-05-26 15:02:38.898604,+442085080932,Loughton,,,,,,,,,,,,,,,,5
216,TinyTalk South Derby and Ashby-de-la-Zouch,"{""Accessibility"": {""Wheelchair-accessible car park"": true}}",0,60,Contact for pricing,f,TinyTalk South Derby and Ashby-de-la-Zouch,"5 Burton Rd, Ashby-de-la-Zouch LE65 2LF",LE65 2LF,52.74806540,-1.47423910,Saturday,10:00am,,,https://www.tinytalk.co.uk/emilywatson,General Classes,5.00,7,0,t,2025-05-26 15:02:40.363237,,Ashby-de-la-Zouch,,,,,,,,,,,,,,,,5
220,Incredible Kids Ashby,"{""Accessibility"": {""Wheelchair-accessible car park"": true, ""Wheelchair-accessible entrance"": true}}",0,60,Contact for pricing,f,Incredible Kids Ashby,"Norman court, Ivanhoe Business Park, 3, Ashby-de-la-Zouch LE65 2UZ",LE65 2UZ,52.76119830,-1.47845000,Saturday,10:00am,,,https://www.incrediblekidsdaynursery.co.uk/,General Classes,4.50,8,0,t,2025-05-26 15:02:40.770003,+441530415566,Ashby-de-la-Zouch,,,,,,,,,,,,,,,,5
214,"JAKS Academy of Dance, Drama & Music","{""Accessibility"": {""Wheelchair-accessible entrance"": false}, ""Children"": {""Good for kids"": true}}",0,60,Contact for pricing,f,"JAKS Academy of Dance, Drama & Music","Saxon House, 3 Union Psge, Ashby-de-la-Zouch LE65 1BW",LE65 1BW,52.74623410,-1.47179650,Wednesday,9:45am,,,http://www.jaks-academy.co.uk/#sample-page,Music & Singing,5.00,4,0,t,2025-05-26 15:02:40.206601,+447748677854,Ashby-de-la-Zouch,,,,,,,,,,,,,,,,5
218,Simon Coope Karate School (GROUPED),"{""Accessibility"": {""Wheelchair-accessible car park"": true, ""Wheelchair-accessible entrance"": true}}",0,60,Contact for pricing,f,Simon Coope Karate School,"Hood Park Leisure Center, North St, Ashby-de-la-Zouch LE65 1HS",LE65 1HS,52.74893100,-1.47122470,Saturday,10:00am,,,http://www.leicesterkarate.net/,General Classes,4.40,5,0,f,2025-05-26 15:02:40.54132,+447906261769,Ashby-de-la-Zouch,,,,,,,,,,,,,,,,5
5343,LullaBaby Northampton,Authentic baby and toddler classes. Professional early years activities.,0,36,Contact for pricing,f,LullaBaby Northampton,"",Unknown,,,Saturday,10:00am,,,,Sensory,,0,0,t,2025-05-26 18:18:22.561597,,Unknown,,,,,,,,,,,,,,,,5
200,"Monkey Music South Woodford, Loughton & Buckhurst Hill (GROUPED)","{""Accessibility"": {""Wheelchair-accessible car park"": true}, ""Children"": {""Good for kids"": true}}",0,60,Contact for pricing,f,"Monkey Music South Woodford, Loughton & Buckhurst Hill","Fallow Fields, Loughton IG10 4QP",IG10 4QP,51.63489770,0.04683810,Tuesday,10:30am,,,https://www.monkeymusic.co.uk/area/south-woodford-woodford-green-loughton-buckhurst-hill,Music & Singing,5.00,18,0,f,2025-05-26 15:02:39.0535,+442089897017,Loughton,,,,,,,,,,,,,,,,5
5344,"Little Glow Wellingborough, Kettering and Surrounding Areas",Authentic baby and toddler classes. Professional early years activities.,0,36,Contact for pricing,f,"Little Glow Wellingborough, Kettering and Surrounding Areas","",Unknown,,,Saturday,10:00am,,,,Sensory,,0,0,t,2025-05-26 18:18:22.636261,,Unknown,,,,,,,,,,,,,,,,5
5345,Tots Play Kettering,Authentic baby and toddler classes. Professional early years activities.,0,36,Contact for pricing,f,Tots Play Kettering,"",Unknown,,,Saturday,10:00am,,,,Sensory,,0,0,t,2025-05-26 18:18:22.711178,,Unknown,,,,,,,,,,,,,,,,5
190,BCP Leisure Poole Dolphin Leisure Centre,"Recreational facility with 3 pools, a well-equipped gym, fitness studio, steam room & sauna.",0,60,3,f,BCP Leisure Poole Dolphin Leisure Centre,"Kingland Rd, Poole BH15 1TN",BH15 1TN,50.71710980,-1.97529650,Multiple,Various times,,,https://www.bcpleisure.co.uk/,Physical Development,3.60,261,0,t,2025-05-26 15:01:44.489607,+441202817777,Poole,,,,,,,,,,,,,,,,5
192,Thai Works Gym,{},0,60,Contact for pricing,f,Thai Works Gym,"262 Ringwood Rd, Poole BH14 0RZ",BH14 0RZ,50.73402780,-1.95487010,Multiple,Various times,,,https://www.thaiworksgym.co.uk/,Physical Development,5.00,46,0,t,2025-05-26 15:01:44.656487,+447888741624,Poole,,,,,,,,,,,,,,,,5
194,The Dorset School of Acting,"{""Accessibility"": {""Wheelchair-accessible car park"": true}}",0,60,Contact for pricing,f,The Dorset School of Acting,"Lighthouse, Poole's Centre for the Arts, 21 Kingland Rd, Poole BH15 1UG",BH15 1UG,50.71856100,-1.97751710,Multiple,Various times,,,http://www.dorsetschoolofacting.co.uk/,General Classes,4.50,8,0,t,2025-05-26 15:01:44.819542,+441202922675,Poole,,,,,,,,,,,,,,,,5
196,Parkstone ABC,"{""Accessibility"": {""Wheelchair-accessible car park"": true}}",0,60,Contact for pricing,f,Parkstone ABC,"Beta centre, 262 Ringwood Rd, Poole BH14 0RS",BH14 0RS,50.73454420,-1.95452500,Multiple,Various times,,,https://parkstoneabc.co.uk/,General Classes,5.00,1,0,t,2025-05-26 15:01:44.985689,+447788141116,Poole,,,,,,,,,,,,,,,,5
205,Baby College,"{""Accessibility"": {""Wheelchair-accessible car park"": true, ""Wheelchair-accessible entrance"": true}}",0,12,Contact for pricing,f,Baby College,"Pauls Ln, Hoddesdon EN11 8TR",EN11 8TR,51.76226590,-0.01179360,Multiple,Various times,,,https://www.babycollege.co.uk/east-herts,General Classes,5.00,13,0,t,2025-05-26 15:02:39.448998,+447429360661,Hoddesdon,,,,,,,,,,,,,,,,5
207,Woodland Play Patch,"{""From the business"": {""Identifies as women-owned"": true}, ""Accessibility"": {""Wheelchair-accessible toilet"": true}, ""Offerings"": {""Food"": true}, ""Amenities"": {""Restaurant"": true, ""Toilet"": true}, ""Children"": {""Good for kids"": true}, ""Other"": {""Identifies as women-owned"": true}}",0,60,Contact for pricing,f,Woodland Play Patch,"10 Morton Crescent, Fence Houses, Houghton le Spring DH4 6AD",DH4 6AD,54.84690990,-1.50892460,Multiple,Various times,,,https://bookwhen.com/theplaygroupeastdurham,Play Groups,5.00,43,0,t,2025-05-26 15:02:39.610098,+447447722273,Houghton le Spring,,,,,,,,,,,,,,,,5
223,Happy Parents Happy Baby Antenatal Classes - Leigh-on-Sea,"{""Accessibility"": {""Wheelchair-accessible car park"": true}}",0,12,Contact for pricing,f,Happy Parents Happy Baby Antenatal Classes - Leigh-on-Sea,"The Corner Club, 44-46 Broadway, Southend-on-Sea, Leigh-on-Sea SS9 1AH",SS9 1AH,51.54141000,0.65758300,Multiple,Various times,,,https://happyparentshappybaby.com/locations/p/leigh-on-sea,General Classes,5.00,14,0,t,2025-05-26 15:02:41.005336,,Leigh-on-Sea,,,,,,,,,,,,,,,,5
209,Bloom Durham West Baby Classes - Witton Gilbert (GROUPED),"{""Accessibility"": {""Wheelchair-accessible car park"": true, ""Wheelchair-accessible entrance"": true}}",0,12,Contact for pricing,f,Bloom Durham West Baby Classes - Witton Gilbert,"Sacriston Ln, Witton Gilbert, Durham DH7 6TF",DH7 6TF,54.80664970,-1.63855670,Multiple,Various times,,,http://www.bloombabyclasses.com/durham-west,General Classes,5.00,3,0,f,2025-05-26 15:02:39.779507,+447539700362,Durham,,,,,,,,,,,,,,,,5
213,Little Acorns Forest Schools Ltd (GROUPED),"{""Service options"": {""On-site services"": true, ""Online classes"": false}, ""Accessibility"": {""Wheelchair-accessible car park"": true, ""Wheelchair-accessible entrance"": true}, ""Amenities"": {""Gender-neutral toilets"": true}, ""Planning"": {""Appointment required"": true}}",0,60,Contact for pricing,f,Little Acorns Forest Schools Ltd,"14 Foxglove Ave, Moira, Donisthorpe, Swadlincote LE65 2UP",LE65 2UP,52.72475740,-1.53652150,Multiple,Various times,,,http://www.forestschooltraininguk.co.uk/,General Classes,5.00,45,0,f,2025-05-26 15:02:40.128946,+447724601147,Swadlincote,,,,,,,,,,,,,,,,5
201,Chingford Baby Sensory (GROUPED),"{""Accessibility"": {""Wheelchair-accessible entrance"": true}, ""Planning"": {""Appointment required"": true}}",0,12,Contact for pricing,f,Chingford Baby Sensory,"Mornington Hall, The Green Walk, London E4 7EN",E4 7EN,51.63167750,0.00108670,Tuesday,10:45am,,,https://www.babysensory.com/loughton,Sensory Play,4.00,1,0,f,2025-05-26 15:02:39.132527,+447753605850,London,,,,,,,,,,,,,,,,5
221,Stagecoach,"{""Accessibility"": {""Wheelchair-accessible car park"": true, ""Wheelchair-accessible entrance"": true}, ""Children"": {""Good for kids"": true}}",0,60,Contact for pricing,f,Stagecoach,"Ivanhoe College, North St, Ashby-de-la-Zouch LE65 1HX",LE65 1HX,52.74995010,-1.46920660,Saturday,12:00pm,,,https://www.stagecoach.co.uk/ashbydelazouch?utm_source=google,General Classes,5.00,1,0,t,2025-05-26 15:02:40.847806,+441332512555,Ashby-de-la-Zouch,,,,,,,,,,,,,,,,5
219,Donisthorpe Woodlands Centre (GROUPED),"{""Accessibility"": {""Wheelchair-accessible car park"": true, ""Wheelchair-accessible entrance"": true}}",0,60,Contact for pricing,f,Donisthorpe Woodlands Centre,"Church St, Donisthorpe, Swadlincote DE12 7PX",DE12 7PX,52.72354800,-1.53015000,Multiple,Various times,,,,Play Groups,4.70,15,0,f,2025-05-26 15:02:40.689694,+441530272203,Swadlincote,,,,,,,,,,,,,,,,5
211,Birth & Bloom,"{""Accessibility"": {""Wheelchair-accessible car park"": true}}",0,60,Contact for pricing,f,Birth & Bloom,"4, Church Yard, Ashby-de-la-Zouch LE65 1AA",LE65 1AA,52.74756040,-1.46711610,Saturday,10:00am,,,http://birthandbloom.net/,General Classes,5.00,46,0,t,2025-05-26 15:02:39.944863,,Ashby-de-la-Zouch,,,,,,,,,,,,,,,,5
217,Heafield Lucy (GROUPED),"{""Accessibility"": {""Wheelchair-accessible car park"": true}, ""Children"": {""Good for kids"": true}}",0,60,Contact for pricing,f,Heafield Lucy,"13 Tamworth Rd, Ashby-de-la-Zouch LE65 2PW",LE65 2PW,52.74197980,-1.47567430,Saturday,10:00am,,,,Dance & Movement,4.00,4,0,f,2025-05-26 15:02:40.454389,+447944349501,Ashby-de-la-Zouch,,,,,,,,,,,,,,,,5
215,EMSA Leicestershire,"{""From the business"": {""Identifies as women-owned"": true}, ""Accessibility"": {""Wheelchair-accessible car park"": true, ""Wheelchair-accessible entrance"": true, ""Wheelchair-accessible seating"": true, ""Wheelchair-accessible toilet"": true}, ""Parking"": {""Free parking lot"": true}, ""Other"": {""Identifies as women-owned"": true}}",0,60,Free,f,EMSA Leicestershire,"Grace Dieu Mnr Dr, Coalville LE67 5UG",LE67 5UG,52.75718700,-1.35180220,Saturday,9:30am,,,http://www.em-sa.co.uk/,Swimming,5.00,28,0,t,2025-05-26 15:02:40.284366,+447514877640,Coalville,,,,,,,,,,,,,,,,5
199,Tumble Tots Kids Gymnatics Classes Chigwell,"{""From the business"": {""Identifies as women-owned"": true}, ""Accessibility"": {""Wheelchair-accessible car park"": true, ""Wheelchair-accessible entrance"": true}, ""Other"": {""Identifies as women-owned"": true}}",0,60,Contact for pricing,f,Tumble Tots Kids Gymnatics Classes Chigwell,"Woollard Centre, Buckhurst Hill IG9 6AQ",IG9 6AQ,51.62944760,0.04861070,Saturday,9:30am,,,http://www.tumbletots.com/chigwell,Physical Development,5.00,12,0,t,2025-05-26 15:02:38.975564,+447849903035,Buckhurst Hill,,,,,,,,,,,,,,,,5
232,Prince Avenue Family Centre,"{""Accessibility"": {""Wheelchair-accessible car park"": true, ""Wheelchair-accessible entrance"": true}, ""Amenities"": {""Gender-neutral toilets"": true}}",0,60,Contact for pricing,f,Prince Avenue Family Centre,"Family Centres, Prince Ave, Hornby Ave, Westcliff-on-Sea, Southend-on-Sea, Westcliff-on-Sea SS0 0LG",SS0 0LG,51.56082870,0.69426800,Multiple,Various times,,,https://www.southendfamilycentres.co.uk/,General Classes,5.00,1,0,t,2025-05-26 15:02:41.72493,+441702220810,Westcliff-on-Sea,,,,,,,,,,,,,,,,5
236,Tina Phelps Stage School,"{""Accessibility"": {""Wheelchair-accessible car park"": true, ""Wheelchair-accessible entrance"": true, ""Wheelchair-accessible seating"": true, ""Wheelchair-accessible toilet"": true}, ""Planning"": {""Appointment required"": true}, ""Children"": {""Good for kids"": true}}",0,60,Contact for pricing,f,Tina Phelps Stage School,"St Luke's Rd, Southend-on-Sea SS2 4AA",SS2 4AA,51.54709900,0.72338930,Multiple,Various times,,,https://www.tinaphelpsstageschool.co.uk/,Dance & Movement,4.90,16,0,t,2025-05-26 15:02:42.035849,+441702469819,Southend-on-Sea,,,,,,,,,,,,,,,,5
240,Razzamataz Southend and Leigh on Sea,"{""Accessibility"": {""Wheelchair-accessible car park"": true, ""Wheelchair-accessible entrance"": true}, ""Amenities"": {""Child care"": true, ""Restaurant"": false}, ""Payments"": {""Debit cards"": true}, ""Children"": {""Good for kids"": true}}",0,60,Contact for pricing,f,Razzamataz Southend and Leigh on Sea,"High School for Girls, Southend-on-Sea SS2 4UZ",SS2 4UZ,51.54165410,0.74458380,Multiple,Various times,,,https://southend.razzamataz.co.uk/,Arts & Crafts,5.00,10,0,t,2025-05-26 15:02:42.37436,+447955245619,Southend-on-Sea,,,,,,,,,,,,,,,,5
